place_id,user_ratings_total,types,district,num_ratings,_merge,name,lat,lng,address,rating
ChIJ--4L955R4joRBV715i5tpoA,,,Colombo,588.0,right_only,Cargills Food City - Depanama,6.9107372,79.89085709999999,"139 Dr.N.M.Perera Mawatha, Colombo 10290, Sri Lanka",4.3
ChIJ-49eZKDv4joRJy3iw6ceWCg,57.0,"grocery_or_supermarket,store,point_of_interest,food,establishment",,,left_only,Cargills Food City (Express) - Miriswatta,7.2309063,79.9083493,"6WJ5+975, Miriswatte",4.3
ChIJ-ZILKE4B4zoRz7MQb5ITwT8,163.0,"supermarket,grocery_or_supermarket,food,store,point_of_interest,establishment",,,left_only,Cargills Food City Kirindiwela,7.0403062,80.1317396,33 Hanwella - Kirindiwela - Urapola Rd,4.5
ChIJ-arfY95b4joRx1sSbGm91tg,342.0,"supermarket,grocery_or_supermarket,store,point_of_interest,food,establishment",Colombo,342.0,both,Cargills Food City - Majestic City,6.894133,79.8546004,"Majestic City, 10 Station Rd, Colombo",3.9
ChIJ-b4edPVQ4joRFJdsZtZ1sUY,379.0,"supermarket,convenience_store,grocery_or_supermarket,food,store,point_of_interest,establishment",,,left_only,Cargills Food City Express - Depanama,6.858817999999999,79.94415219999999,"No 205, Borella Road, Pannipitiya",4.0
ChIJ-fPoiLxr5DoRBqZiLHg94Dk,582.0,"supermarket,grocery_or_supermarket,food,store,point_of_interest,establishment",,,left_only,Cargills Food City - Wellawaya,6.731288999999999,81.1019688,"No. 32 Hambanthota Road, Wellawaya",4.2
ChIJ-yJ3WLkZ4zoRn3h6rA0Yns4,119.0,"grocery_or_supermarket,food,store,point_of_interest,establishment",,,left_only,Cargills Food City Express - Alawwa 2,7.2912161,80.2380754,"76RQ+C9H, A6 Variyagoda, Alawwa",4.3
ChIJ07i3omta4joRxXz74N2El1s,704.0,"supermarket,grocery_or_supermarket,food,store,point_of_interest,establishment",,,left_only,Cargills Food City - Mirihana,6.8749141,79.9009095,"VWG2+29F, 108, Jubilie Post, Jubile Post Roundabout, Nugegoda",4.0
ChIJ08vGLHsD4zoReqGmF3nEIsw,150.0,"grocery_or_supermarket,food,store,point_of_interest,establishment",,,left_only,Cargills Food City Express - Urapola,7.097990299999999,80.1445165,"34XV+5RR, Urapola",4.2
ChIJ0RWmTa034zoRTITySqO5hGs,178.0,"grocery_or_supermarket,store,food,point_of_interest,establishment",,,left_only,Cargills Food City Express-2 Ibbagamuwa,7.542539,80.44560299999999,"No 183 Udawela, Dehelgamuwa, Ibbagamuwa",4.2
ChIJ0S-O1olz4ToROOrQiwdca0s,161.0,"supermarket,grocery_or_supermarket,store,point_of_interest,food,establishment",Galle,161.0,both,Cargills Food City - Thanipolgaha Junction,6.0460103,80.224479,"30 Morris Rd, Galle",4.4
ChIJ0TF_ynqf_DoRv1crezAd6GI,648.0,"supermarket,grocery_or_supermarket,food,store,point_of_interest,establishment",,,left_only,Cargills Food City Express - Habarana,8.0390462,80.75486459999999,"72 Ambepussa - Trincomalee Hwy, Habarana",4.2
ChIJ0bLRbVfN-joRMccJPLP7K0A,455.0,"supermarket,grocery_or_supermarket,store,food,point_of_interest,establishment",Batticaloa,455.0,both,Cargills Food City. - Batticaloa 1,7.7141492,81.69474699999999,"No. 67, St. Anthony's Street",4.2
ChIJ0cs55j_v4joRxWAMgpePCOU,104.0,"supermarket,grocery_or_supermarket,store,point_of_interest,food,establishment",,,left_only,Cargills Food City - Negombo 4,7.1993923,79.8566697,Negombo,4.3
ChIJ0zh-BfLj4joRSd2zkJ_on0U,350.0,"supermarket,grocery_or_supermarket,food,store,point_of_interest,establishment",,,left_only,Cargills Food City Express - Divulapitiya,7.223770399999999,80.018295,Divulapitiya,3.9
ChIJ1662-ctb4joReb15yR-8zSI,179.0,"supermarket,grocery_or_supermarket,food,store,point_of_interest,establishment",Colombo,179.0,both,Cargills Food City Express - Havelock Town,6.882496499999999,79.8696021,"323 Havelock Rd, Colombo",4.1
ChIJ17ujsrSB4zoRno-pgaa9mD4,3458.0,"supermarket,grocery_or_supermarket,food,store,point_of_interest,establishment",Nuwara Eliya,3458.0,both,Cargills Food City - Nuwaraeliya,6.9759955,80.7656988,"90 Kandy Road, Kandy",4.1
ChIJ1Q2kgq8_5ToRZXytE3E49zM,396.0,"supermarket,grocery_or_supermarket,store,point_of_interest,food,establishment",,,left_only,Cargills Food City - Kalmunai,7.4138036,81.8272638,"Main St, Sainthamaruthu",4.0
ChIJ1XEnDSjN4zoRxglGTHbFXjg,124.0,"grocery_or_supermarket,food,store,point_of_interest,establishment",,,left_only,Cargills food city Mathugama 02,6.5217578,80.11701970000001,"Agalawatta - Matugama Rd, Matugama",4.5
ChIJ1XO7-0Y54ToRJ-yJ3eLs-qo,117.0,"supermarket,grocery_or_supermarket,food,store,point_of_interest,establishment",,,left_only,Cargills Food City (Express) - Devinuwara,5.9299388,80.5940363,"WHHW+X2M, No.44H, Tangalle Road, East, Dondra",4.1
ChIJ1cvVVI9x4ToRgwkkq1jYdjw,368.0,"supermarket,grocery_or_supermarket,store,point_of_interest,food,establishment",,,left_only,Cargills Food City - Karapitiya 2,6.0668693,80.22345899999999,"Hirimbura Rd, Galle",4.3
ChIJ1z2ej_Vz4ToRUqiX3NkpOFA,74.0,"supermarket,grocery_or_supermarket,store,point_of_interest,food,establishment",Galle,74.0,both,Cargills Food City (Express) - Nugaduwa Fairway,6.0385806,80.2495409,"26QX+CRM, Galle",4.4
ChIJ22RiIEgG4zoRTC8fIqU2i8E,416.0,"supermarket,grocery_or_supermarket,food,store,point_of_interest,establishment",,,left_only,Cargills Food City Express - Ruwanwella,7.0432097,80.2542775,"No. 114, Main Street, Ruwanwella",4.0
ChIJ2466c9A5_ToRPa48LVtycRs,79.0,"grocery_or_supermarket,food,store,point_of_interest,establishment",,,left_only,Cargills Food City,7.9102384,79.82352589999999,"101 Welusumanapura Rd, Madurankuli",4.2
ChIJ2QUH8Tnl4joRzdqYBFRvfqo,276.0,"grocery_or_supermarket,food,store,point_of_interest,establishment",,,left_only,Cargills Food City - Minuwangoda.,7.166388899999999,79.9467343,"Cargills Building, Minuwangoda",4.0
ChIJ2QllsFj94joR5hJPKpHIwio,60.0,"supermarket,grocery_or_supermarket,food,store,point_of_interest,establishment",,,left_only,Cargills Food Express Wathupitiwala,7.142939999999999,80.0974141,"392 Aththanagalla Rd, Wathupitiwala",4.0
ChIJ2_-AfNyz_DoR0VH1AdHzKhY,408.0,"supermarket,grocery_or_supermarket,food,store,point_of_interest,establishment",,,left_only,Cargills Food City - Galewela,7.759345400000001,80.5709892,"No. 210, Kalawewa Junction, Galewala",4.1
ChIJ3SS6FDbd_DoRW_wP66y7J1c,243.0,"supermarket,grocery_or_supermarket,food,store,point_of_interest,establishment",,,left_only,Cargills Food City (Express) - Galgamuwa,7.995601799999999,80.2700708,"37, Anuradhapura Road, Galgamuwa",4.1
ChIJ3VKIaH8m_ToRZBV4Ua3SrJg,175.0,"supermarket,grocery_or_supermarket,store,point_of_interest,food,establishment",,,left_only,Cargills Food City Express Anamaduwa,7.8792548,80.0095479,"V2H5+JPV, No 106, Puttalama Road, Katugastota-Kurunegala-Puttalam Hwy, Anamaduwa",4.0
ChIJ3aWUSWBj5DoR1rx-5MxGe5E,157.0,"supermarket,grocery_or_supermarket,store,point_of_interest,food,establishment",Badulla,157.0,both,Cargills Food City (Express) - Badulla,6.998595799999999,81.056859,"X3X4+CPM, Badulla, North",4.2
ChIJ3arpTAZF4joRHQR4SyTi4L8,272.0,"supermarket,grocery_or_supermarket,food,store,point_of_interest,establishment",,,left_only,Cargills Food City Express - Moratumulla,6.788089200000001,79.8956669,"No. 151, Main street, Moratuwa, Moratuwa",3.9
ChIJ3bZpQNkS5ToRiPmdi4tYJz4,304.0,"supermarket,grocery_or_supermarket,food,store,point_of_interest,establishment",,,left_only,Cargills Food City - Akkareipattu,7.2312752,81.85095319999999,"143/B1 Akkaraipattu - Kalmunai Rd, Akkaraipattu",4.2
ChIJ3fGLmyQ64zoR79bq5yfhSi4,618.0,"supermarket,grocery_or_supermarket,store,food,point_of_interest,establishment",Kurunegala,618.0,both,Cargills Food City - Kurunegala 3,7.477999199999999,80.3566403,"Colombo Road, Kurunegala",4.2
ChIJ3fX3syLC4joRvShDIWKw6SE,367.0,"supermarket,grocery_or_supermarket,food,store,point_of_interest,establishment",,,left_only,Cargills Food City - Wennappuwa,7.3451354,79.8405366,"8RWR+363, 25/2 Chilaw - Colombo Main Rd, Wennappuwa",4.1
ChIJ3x0K-mb44joRYZkPWCpFu8w,534.0,"supermarket,grocery_or_supermarket,food,store,point_of_interest,establishment",,,left_only,Cargills Food City - Kadawatha,7.003150900000001,79.95604949999999,"453 Kandy Rd, Kadawatha",4.0
ChIJ3zrAEufv4joRbqhPximRVBw,133.0,"grocery_or_supermarket,food,store,point_of_interest,establishment",,,left_only,Cargills Food City - Negombo 3,7.217203500000001,79.84552269999999,"1 Puttalam - Colombo Rd, Negombo",4.4
ChIJ400aggto4zoRoDFLiJgPFTs,1103.0,"supermarket,pharmacy,health,grocery_or_supermarket,store,food,point_of_interest,establishment",,,left_only,Cargills Food City - Katugastota 2,7.321245200000001,80.6274966,"452 Katugastota Rd, Katugastota",4.2
ChIJ41n2O-Za4joRKho9dtHwb5c,425.0,"supermarket,grocery_or_supermarket,food,store,point_of_interest,establishment",,,left_only,Cargills Food City - Attidiya,6.839159899999999,79.8846341,"208 B389, Dehiwala-Mount Lavinia",4.1
ChIJ46FjJ0FQ4joR782kzkznjLY,745.0,"supermarket,grocery_or_supermarket,food,store,point_of_interest,establishment",,,left_only,Cargills Food City - Arawwala,6.8304258,79.93488529999999,"675/1 Arawwala Rd, Pannipitiya",4.1
ChIJ49QAAcUT4zoR-hMVHfP1vfU,93.0,"supermarket,grocery_or_supermarket,store,food,point_of_interest,establishment",,,left_only,Cargills Food City - Rambukkana,7.321590199999999,80.3900845,"44 Station Road, Rambukkana",4.3
ChIJ49qQrDgd4zoRYDlrQtGGvGE,233.0,"grocery_or_supermarket,food,store,point_of_interest,establishment",,,left_only,Cargills Food City,7.167824,80.12370779999999,"549F+4FG, Pasyala",4.1
ChIJ4TytYjXj4joRjMmGr2CGAOM,412.0,"supermarket,grocery_or_supermarket,store,point_of_interest,food,establishment",,,left_only,Cargills Food City Express Naiwala Juncton,7.158647,80.0312163,"Naiwala Roundabout, Veyangoda",4.0
ChIJ4WWEcAA_5ToRv7f677OCR-w,1.0,"supermarket,grocery_or_supermarket,store,point_of_interest,food,establishment",,,left_only,Cargills Food City Kalmunai,7.398427900000001,81.8327796,"9RXM+94F, Kalmunai",4.0
ChIJ4bqAWLtz4ToR3Lo6MI9r8kU,333.0,"supermarket,grocery_or_supermarket,store,point_of_interest,food,establishment",Galle,333.0,both,Cargills Food City - Galle 1,6.0333185,80.2154128,"24, 26 Gamini Mawatha, Galle",3.9
ChIJ4dgfhw1I4joRaCqqtC7IzFs,682.0,"supermarket,grocery_or_supermarket,food,store,point_of_interest,establishment",,,left_only,Cargills Food City Wadduwa 02,6.6607194,79.9325789,"No.685, A2, Wadduwa",4.3
ChIJ4fphRepb4joRqKn2mvh2fm4,,,Colombo,429.0,right_only,Cargills Food City - Nugegoda 2,6.8725261,79.8903625,"79 Stanley Tilakaratne Mawatha, Nugegoda 10250, Sri Lanka",4.1
ChIJ4fqzOD5n4zoR_0VfUWCHKe0,315.0,"supermarket,pharmacy,grocery_or_supermarket,store,health,point_of_interest,food,establishment",,,left_only,Cargills Food City Express - Manikhinna,7.3164178,80.7006454,"No. 31, Kandy Rd, Menikhinna",3.9
ChIJ4wbLt_9Z4joRRRztEuIVX8Y,550.0,"supermarket,grocery_or_supermarket,store,food,point_of_interest,establishment",,,left_only,Cargills Food City - Battaramulla,6.9018828,79.9177806,"103 Main St, Battaramulla",4.0
ChIJ592j12lC4ToRwo2SbrXNwDw,447.0,"supermarket,grocery_or_supermarket,food,store,point_of_interest,establishment",,,left_only,Cargills Food City - Akuressa,6.0968374,80.4770209,"Matara - Akuressa Hwy, Akuressa",4.2
ChIJ5TnDo9qX_DoRLxNw3vM_Rok,231.0,"supermarket,grocery_or_supermarket,food,store,point_of_interest,establishment",,,left_only,Cargills Food City Express Kakirawa,8.040511799999999,80.5967379,"No 15, Malawa Village,Central Road, Kekirawa",4.2
ChIJ5ecmATZD5DoR8acsrPQ3w-Q,269.0,"supermarket,grocery_or_supermarket,food,store,point_of_interest,establishment",,,left_only,Cargills Food City (Express) - Buttala,6.7601416,81.2463839,"Q66W+2H4, Buttala",4.2
ChIJ62yke0vw4joRHX7DJ3CFWAY,325.0,"supermarket,grocery_or_supermarket,store,point_of_interest,food,establishment",,,left_only,Cargills Food City - Seeduwa 2,7.127174399999999,79.8768125,"4VGG+VPV, Seeduwa",4.1
ChIJ6QlMCvr44joRCOO3sfoZL9c,502.0,"supermarket,grocery_or_supermarket,store,point_of_interest,food,establishment",,,left_only,Cargills Food City Express - Ranmuthugala,7.0175579,79.97086449999999,"2X9C+297, Kandy - Colombo Rd, Eldeniya",3.9
ChIJ6So_DwjU-joRietaWRLENbk,358.0,"supermarket,grocery_or_supermarket,store,food,point_of_interest,establishment",,,left_only,Cargills Food City - Eravur,7.777556199999999,81.6027014,"42,44, Main street, Eravur",4.2
ChIJ71yjmRbp4joR_4tfTk1Pz6Q,357.0,"supermarket,grocery_or_supermarket,food,store,point_of_interest,establishment",,,left_only,Cargills Food City - Kochchikade,7.2626215,79.8573451,"7V75+423, 37 මීගමුව පාර, Negombo",4.1
ChIJ79UFOyVv4zoRbunV52Ww5jk,168.0,"grocery_or_supermarket,food,store,point_of_interest,establishment",,,left_only,Cargills Food City - Angunawala,7.240998800000001,80.59309789999999,"6HRV+97P, Angunawala",4.5
ChIJ7Rs429dE4zoRHItQw6DhtC8,426.0,"supermarket,grocery_or_supermarket,store,food,point_of_interest,establishment",Matale,426.0,both,Cargills Food City - Matale 2,7.4803619,80.6234812,"No. 666 A9, Matale",4.1
ChIJ7Yh0rA1Z4joRiI7bcqZHkjk,594.0,"supermarket,grocery_or_supermarket,food,store,point_of_interest,establishment",Colombo,594.0,both,Cargills Food City - Norris Canal,6.9223832,79.8659455,"25 Norris Canal Rd, Colombo",3.9
ChIJ7ZHkbrR34ToR39cxsI5HAgE,139.0,"supermarket,grocery_or_supermarket,store,point_of_interest,food,establishment",,,left_only,Cargills Food City (Express) - Hikkaduwa 2,6.1156671,80.1200585,"4489+CRG, 143 Galle Rd, Hikkaduwa",4.3
ChIJ7_VNWHi84zoR207Q-3M40Ns,263.0,"supermarket,grocery_or_supermarket,food,store,point_of_interest,establishment",,,left_only,Cargills Food City Express - Kuruwita,6.7740263,80.3676322,"No. 96, Main Road, Kuruwita",4.1
ChIJ7wXXtOVY4joROQZwLR4-HSs,901.0,"supermarket,grocery_or_supermarket,food,store,point_of_interest,establishment",Colombo,901.0,both,Cargills Food City - Kotahena,6.948634299999999,79.8594693,"108 George R. De Silva Mawatha, Colombo",3.9
ChIJ7xl5ENbv_DoRG27nU6RV3uI,114.0,"supermarket,grocery_or_supermarket,store,point_of_interest,food,establishment",,,left_only,Cargills Food City Express - Thambuttegama,8.158592,80.29813229999999,"575X+C7R Thammennagama, Tambuttegama",4.3
ChIJ82Lzxh3e4joRPru1d2Hq1iE,512.0,"supermarket,grocery_or_supermarket,food,store,point_of_interest,establishment",,,left_only,Cargills Food City - Pannala,7.3290475,80.0245968,"33 B356, Pannala",4.0
ChIJ8SOgjXkx4joRzrhvlEcghzk,114.0,"supermarket,grocery_or_supermarket,food,store,point_of_interest,establishment",,,left_only,"Cargills Express, Payagala",6.527908099999999,79.97882589999999,"GXHH+5G8, Beruwala",4.1
ChIJ8TgocW9m4zoRa0_H_HmDcDY,320.0,"supermarket,grocery_or_supermarket,food,store,point_of_interest,establishment",,,left_only,Cargills Food City - Ampitiya,7.269100099999999,80.66483649999999,710 B/1 Pallegama N,4.0
ChIJ8WxhskVX4ToR6Uu_A68tlSY,35.0,"supermarket,grocery_or_supermarket,store,point_of_interest,food,establishment",,,left_only,Cargills Food City (Express) - Urubokka,6.3050126,80.6336634,"8J3M+VJ, Main street, Urubokka",4.7
ChIJ8ZA5CAA55ToR1ZpoXSeP27k,15.0,"grocery_or_supermarket,store,point_of_interest,food,establishment",,,left_only,Cargills Food city - Kaluwanchikudy,7.5204698,81.7881123,"Main Street, Kaluwanchikudy",4.7
ChIJ8cHSjZBB4zoR3mB9KEgRV4k,198.0,"supermarket,grocery_or_supermarket,store,food,point_of_interest,establishment",,,left_only,Cargills Food City Express Galagedara,7.3727606,80.5244948,Galagedara,3.9
ChIJ8cfFGfyX5DoRAUongPoQVak,603.0,"supermarket,grocery_or_supermarket,food,store,point_of_interest,establishment",,,left_only,Cargills Food City - Mahiyanganaya,7.3410752,80.9935645,"NO.113, Tile Factory Rd, Mahiyanaganaya",4.2
ChIJ8ek-dUlV4joRrbh0F41mjJ0,48.0,"grocery_or_supermarket,store,point_of_interest,food,establishment",,,left_only,Cargills Foodcity Express - Giridara,6.948774,80.0949658,"W3XV+GXF, Giridara Bus Stop, Dompe - Pugoda Road, Giridara Junction",4.3
ChIJ8whEulYY4zoRoXtpNMBD2ws,240.0,"supermarket,pharmacy,grocery_or_supermarket,health,food,store,point_of_interest,establishment",,,left_only,Cargills Food City Express - Alawwa 1,7.295231,80.2368113,"151, Road, Giriulla, Alawwa - Maharagama Rd, Alawwa",4.0
ChIJ943uNn1U4ToRvbcbR3z8IAA,140.0,"supermarket,grocery_or_supermarket,store,point_of_interest,food,establishment",,,left_only,Cargills Food City (Express) - Middeniya,6.2491163,80.76432350000002,"6QX7+JP5, Liyanage Building, Weeraketiya Road, Middeniya",3.9
ChIJ99Nob1fP4joRjoE6g1rnXoQ,145.0,"supermarket,grocery_or_supermarket,food,store,point_of_interest,establishment",,,left_only,Cargills Food City Express Madampe.,7.497027699999999,79.84014119999999,"No. 33, Station Road, Madampe",4.0
ChIJ99pdP07p4joRQE9Epom33Rc,246.0,"supermarket,grocery_or_supermarket,food,store,point_of_interest,establishment",,,left_only,Cargills Food City (Express) - Lewis Place,7.244563500000001,79.8422552,"63 Porutota Rd, Negombo",4.1
ChIJ9RKzhyZb4joRbJydKPNFgkk,586.0,"supermarket,grocery_or_supermarket,store,point_of_interest,food,establishment",,,left_only,Cargills Food City - Ratmalana,6.8275834,79.8691235,"137, Mount City Building, Galle Rd, Colombo",4.0
ChIJ9TAV9W0k4zoRBPK__qtiClA,818.0,"supermarket,grocery_or_supermarket,store,point_of_interest,food,establishment",,,left_only,Cargills Food City - Narammala,7.427257999999999,80.2140717,"No. 161 Negombo Rd, Narammala",4.1
ChIJ9UCBMLfZ4joRSyMltkmJYL8,532.0,"supermarket,grocery_or_supermarket,food,store,point_of_interest,establishment",,,left_only,Cargills Food City - Kuliyapitiya 1,7.4728724,80.0444109,"183 Hettipola Rd, Kuliyapitiya",3.9
ChIJ9_EsR67Z4zoR95PstNiEc3E,100.0,"supermarket,grocery_or_supermarket,store,point_of_interest,food,establishment",,,left_only,Cargills Food City (Express) - Neluwa,6.3781674,80.3620978,Neluwa,4.5
ChIJ9wkumuZb4joRcjNdA9Iwkpg,277.0,"supermarket,grocery_or_supermarket,food,store,point_of_interest,establishment",Colombo,277.0,both,Cargills Food City - Pamankada (W.A. Silva Mawatha),6.877097,79.8680957,"189 1/1 First Floor, W.A. Silva Mawatha, Colombo",4.2
ChIJ9zRlcUfz4zoRRlb3eUkyvSM,909.0,"supermarket,grocery_or_supermarket,food,store,point_of_interest,establishment",,,left_only,Cargills Food City - Balangoda,6.6477908,80.70027619999999,"157 Old Road, Balangoda",4.2
ChIJA3_DaDrx4joR7H2-_5Lqkgk,226.0,"supermarket,grocery_or_supermarket,food,store,point_of_interest,establishment",,,left_only,Cargills Food City Express - Bopitiya,7.0797886,79.8596587,"No. 1 Pamunugama Rd, Bopitiya",4.0
ChIJAQAAAAz84joR3B9JBraWOY8,,,Gampaha,27.0,right_only,Cargills Food Gampaha 03,7.0912893,79.9926679,"No. 27 Oruthota Road, Gampaha, Sri Lanka",3.3
ChIJAQAAAJCU_joR9IFiysOdEFw,7.0,"supermarket,grocery_or_supermarket,store,food,point_of_interest,establishment",,,left_only,Cargills Food City,9.3802886,80.3769999,"No. 7-10 Anthoneypillai Building, Karadibokku",3.6
ChIJAQAAANOB4ToR3b_DcCet_i4,215.0,"supermarket,grocery_or_supermarket,food,store,point_of_interest,establishment",,,left_only,Cargills Food City (Express) - Karandeniya,6.2703717,80.09136869999999,"No 343 Mahaedanda, Karandeniya",4.3
ChIJAQAAAP9C4zoRVmMl_x5CKEs,190.0,"supermarket,grocery_or_supermarket,store,food,point_of_interest,establishment",,,left_only,Cargills Food City Express - Poojapitiya,7.381315700000001,80.5867707,"1/C, No 6, Owissa Road, Poojapitiya",4.3
ChIJARgemDQx4joROR5IW54ZrlE,,,Kalutara,333.0,right_only,Cargills Food City Express Kalutara Central,6.561724799999999,79.9815062,"No 235 Central Junction, Sri Lanka",3.9
ChIJA_QIM6J3-zoRcXLz7YkvAFE,109.0,"supermarket,grocery_or_supermarket,store,food,point_of_interest,establishment",,,left_only,Cargills Food City Express - Kanthale,8.3658889,81.0031439,"Clock Tower, අග්‍රබෝධි මාවත, Kantale",4.4
ChIJAa03JFBa4joR7aMmlZN5uJ0,,,Colombo,681.0,right_only,Cargills Food City - Kohuwala,6.8667181,79.8838313,"S. De S. Jayasinghe Mawatha, Colombo, Sri Lanka",4.0
ChIJAfusa3RZ4joRJ0Z4mVz5iXA,1299.0,"supermarket,grocery_or_supermarket,store,point_of_interest,food,establishment",Colombo,1299.0,both,Cargills Food City - Ward Place,6.916004999999999,79.8701681,"48 Ward Pl, Colombo",4.1
ChIJB-qzNXnE4joRUuphc5WQHPA,176.0,"grocery_or_supermarket,food,store,point_of_interest,establishment",,,left_only,Cargills Food City Nattandiya,7.4125498,79.8687504,"CV79+2G2, Nattandiya",3.9
ChIJB1yE1a-p4zoRwOo71KUSwKY,253.0,"grocery_or_supermarket,food,store,point_of_interest,establishment",,,left_only,Cargills Food City - Express Talduwa,6.9590765,80.2235468,Talduwa,4.2
ChIJB6sr9AFT4zoR6AFlRh5e72E,136.0,"grocery_or_supermarket,store,food,point_of_interest,establishment",,,left_only,Cargills food city Express - Madawala Ulpotha,7.6091153,80.6359272,"JJ5P+J9V, Madawala Ulpotha",4.4
ChIJB7QWVtJZ4joRN2vP0acMZ6k,117.0,"grocery_or_supermarket,food,store,point_of_interest,establishment",Colombo,117.0,both,Cargills Food City - Torrington Square,6.9016987,79.8685023,"New Building, No. Slbc Independance Square, Colombo",4.0
ChIJB9YofgDH4joRZ-l2P6DVr-k,3.0,"grocery_or_supermarket,food,store,point_of_interest,establishment",,,left_only,Cargills Foodcity Express - Mahawewa,7.459056,79.8259692,"FR5G+J9H, Mahawewa",4.3
ChIJBVFU1r6t5joRFWkq2EQhVLI,30.0,"supermarket,grocery_or_supermarket,food,store,point_of_interest,establishment",,,left_only,Cargills Food City (Express) - Angunukolapelessa,6.1663045,80.89739569999999,"5V8W+GXC, Agunukolapelessa",4.5
ChIJBeNrfz9a4joRmQ45I7_4Itw,,,Colombo,854.0,right_only,Cargills Food City - Pagoda,6.8784425,79.89397120000001,"41 Pagoda Rd, Nugegoda 67337, Sri Lanka",4.1
ChIJCYQD-4aW_joR7cIXV1ncy1c,14.0,"food,point_of_interest,establishment",,,left_only,Cargills Factory,9.3186937,80.40699769999999,"8C94+CQH, Ariviyal Nagar",4.4
ChIJCw3VpRpZ4joRVP15C07045M,127.0,"supermarket,grocery_or_supermarket,food,store,point_of_interest,establishment",Colombo,127.0,both,Cargills Food City Express - Maradana,6.930625999999999,79.86243499999999,"205 Maradana Rd, Colombo",4.0
ChIJCzDzr9Lx4joRBdzLtXp3-n4,758.0,"supermarket,grocery_or_supermarket,food,store,point_of_interest,establishment",,,left_only,Cargills Food City - Seeduwa 1,7.1433257,79.8737724,"673 Negombo Rd, Seeduwa",4.0
ChIJD1hHxuBQ4joRG5kwVqu4N7E,463.0,"supermarket,grocery_or_supermarket,store,point_of_interest,food,establishment",,,left_only,Cargills Food City,6.8779168,79.9592263,Sri Jayawardenepura Kotte,4.3
ChIJD3vssfdZ4joRkzyak6O3UHg,1015.0,"supermarket,grocery_or_supermarket,food,store,point_of_interest,establishment",Colombo,1015.0,both,Cargills Food City - Ethul Kotte,6.9012664,79.90583029999999,"No.906 Kotte Rd, Sri Jayawardenepura Kotte",4.1
ChIJD8dOYiN04zoRrkVbE8Vvybk,552.0,"supermarket,grocery_or_supermarket,store,point_of_interest,food,establishment",,,left_only,Cargills Food City - Nawalapitiya,7.055834699999999,80.53449239999999,"51 Kandy Rd, Nawalapitiya",3.9
ChIJDRDyXO374joRdU28zUoYsjE,,,Gampaha,494.0,right_only,Cargills Food City - Gampaha 2,7.08965,80.0043159,"257 Colombo Rd, Gampaha, Sri Lanka",4.1
ChIJDS8o689P4ToRVQ2fONCEuAw,122.0,"grocery_or_supermarket,food,store,point_of_interest,establishment",,,left_only,Cargills Food City (Express) - Walasmulla,6.1503734,80.6974639,"5M2W+4XW, South, Walasmulla",4.3
ChIJDUDAi8RC4zoRs6vM0b6nbFU,426.0,"supermarket,grocery_or_supermarket,store,food,point_of_interest,establishment",,,left_only,Cargills Food City - Akurana,7.369337499999999,80.617334,"281 Matale Rd, Akurana",4.0
ChIJDb_YbFfN-joRTqWhyij_4LU,462.0,"supermarket,grocery_or_supermarket,store,food,point_of_interest,establishment",Batticaloa,462.0,both,Cargills Food City,7.725822099999998,81.68989719999999,"PMGQ+8XC, Batticaloa",4.2
ChIJDcm7bzxx4ToRalOc8oS53Go,55.0,"supermarket,grocery_or_supermarket,food,store,point_of_interest,establishment",,,left_only,Cargills Food City (Express) - Pinnaduwa,6.0655969,80.268081,"3789+66P, Pinnaduwa Exit, Walahanduwa",4.2
ChIJDdcqb_pd-zoRgnJuIUMhbtM,118.0,"supermarket,grocery_or_supermarket,food,store,point_of_interest,establishment",,,left_only,Cargills Food City Express - Jayanthipura,7.984494199999999,80.9668348,Maradankadawala-Habarana-Thirukkondaiadimadu Hwy,4.3
ChIJE9G3IutF4joRmqYsxrE6Gf0,119.0,"supermarket,grocery_or_supermarket,food,store,point_of_interest,establishment",,,left_only,Cargills Food City,6.7087004,79.907889,"No.29 Colombo Main Rd, පානදුර",4.0
ChIJEQZC5qCp4zoRk6-z5Hm95nY,796.0,"supermarket,grocery_or_supermarket,store,point_of_interest,food,establishment",,,left_only,Cargills Food City - Avissawella 1,6.9504129,80.2137781,"91 Ratnapura Road, Avissawella",4.0
ChIJEZcx5hhb4joR1ziFY-aEiko,1040.0,"supermarket,grocery_or_supermarket,store,point_of_interest,food,establishment",Galle,1040.0,both,Cargills Food City – Mount Lavinia STC,6.8372218,79.86729389999999,"270, Galle Rd, Mount Lavinia .S.T.C, Dehiwala-Mount Lavinia",3.9
ChIJEczscohh4zoRu2fJmW67Kxg,104.0,"grocery_or_supermarket,store,point_of_interest,food,establishment",,,left_only,Cargills Food City Express - Theldeniya,7.3118813,80.76286019999999,"8Q67+Q5C, Mahanuwara - Mahiyanganaya, Road, Teldeniya",4.3
ChIJEe8qh5JZ4joRtZ7R3oNcKwY,972.0,"supermarket,grocery_or_supermarket,food,store,point_of_interest,establishment",Colombo,972.0,both,Cargills Food City (Express) - Rajagiriya,6.910106600000001,79.8942646,"349 Cotta Rd, Sri Jayawardenepura Kotte",4.0
ChIJExbHTTTZ4zoRIsOR_5LvZs0,20.0,"supermarket,grocery_or_supermarket,store,food,point_of_interest,establishment",,,left_only,Cargills Food City (Express) - Neluwa,6.3740333,80.3887232,"No. 10, Sawijaya Building, Dhellawa Rd, Galle",3.8
ChIJExrvEBRa4joRwBr7-w3zAtg,,,Colombo,388.0,right_only,Cargills Food City - Pitakotte 1,6.8827602,79.9015332,"No.407 , Pitta Kotte Road, Sri Lanka",3.9
ChIJEz8Bb0lN-ToRpbF87JUlw24,128.0,"grocery_or_supermarket,store,food,point_of_interest,establishment",Mullaitivu,128.0,both,Cargills Food City Express,9.2676522,80.816486,"7R98+3H5, Main Road, Mullaitivu",4.0
ChIJF9XNrW8r4joRtH299UBee34,79.0,"supermarket,grocery_or_supermarket,food,store,point_of_interest,establishment",,,left_only,Cargills Food City Express - Uragasmanhandiya,6.3428902,80.0822014,"83VJ+5V4, Uragasmanhandiya",4.3
ChIJF9nRcedx4zoRE8tJOZzpt3E,634.0,"supermarket,grocery_or_supermarket,store,point_of_interest,food,establishment",,,left_only,Cargills Food City - Gampola 1,7.160625599999999,80.565185,"8/8, Kandy Rd, Gampola",4.0
ChIJFUab88TL4joRCwYyRTVPQdM,21.0,"grocery_or_supermarket,food,store,point_of_interest,establishment",,,left_only,Cargills Food City - Chilaw 3,7.582891900000001,79.7966177,"92 Puttalam - Colombo Rd, Chilaw",4.0
ChIJFXY92vc54zoRLpo17LPH3Qo,429.0,"supermarket,convenience_store,grocery_or_supermarket,store,food,point_of_interest,establishment",Kurunegala,429.0,both,Cargills Food City - Kurunegala 02,7.492658899999999,80.3663558,"103 Dambulla Rd, Kurunegala",4.1
ChIJFdDox1794joRNsHmBLPrdAg,334.0,"supermarket,grocery_or_supermarket,store,point_of_interest,food,establishment",,,left_only,Cargills Food City Nittambuwa,7.1414823,80.0939824,"89 A1, Nittambuwa",4.0
ChIJFdGcR9Zn_DoR3gFXG-gtz4o,183.0,"supermarket,grocery_or_supermarket,store,point_of_interest,food,establishment",,,left_only,Cargills Food City Express - Medawachchiya,8.5414834,80.4919316,"GFRR+HQV, Kandy - Jaffna Hwy, Medawachchiya",4.2
ChIJFfWzt5L74joRsVR29yBigEw,,,Gampaha,18.0,right_only,Cargills Food City - Gampaha 1,7.0927327,79.9963009,"3XVW+3GV, Bauddhaloka Mawatha, Gampaha, Sri Lanka",3.3
ChIJG7F9UAAt4joRxhS0jtIk1xg,4.0,"convenience_store,food,store,point_of_interest,establishment",,,left_only,Cargills Food City Express - Southern Highway - B,6.4690414,80.07672459999999,"6°28'08.8""N 80°04'38.0""E",2.8
ChIJGScnbyZh4zoR97zC3n8U8Oo,448.0,"supermarket,grocery_or_supermarket,food,store,point_of_interest,establishment",,,left_only,Cargills Food City Express - Digana,7.295005999999999,80.7344557,"Methsiripaya, New Town, Rajawella, Digana",3.8
ChIJGUQoTqc54zoRM_vAdAYQLwQ,164.0,"supermarket,grocery_or_supermarket,store,food,point_of_interest,establishment",Kurunegala,164.0,both,Cargills Food City - Kurunegala 4,7.4763179,80.378989,"F9GH+GHH, Theliyagonna",4.4
ChIJGXr5GKpW_joRBlTaxH9yge4,1365.0,"shopping_mall,bakery,food,store,point_of_interest,establishment",,,left_only,Cargills Square - Jaffna,9.6654165,80.0139227,"M287+5GH, யாழ் மணிக்கூட்டுக் கோபுர வீதி, Mahathma Gandhi Rd, Jaffna",4.3
ChIJGYTYZs1b4joREBY0JF01Emk,1107.0,"supermarket,grocery_or_supermarket,store,point_of_interest,food,establishment",Colombo,1107.0,both,Cargills Food City - Colombo 05,6.8878131,79.8729997,"213 Park Rd, Colombo",3.8
ChIJGYTYZs1b4joRLLFU-mRdEk0,845.0,"supermarket,grocery_or_supermarket,store,point_of_interest,food,establishment",Colombo,845.0,both,Cargills Food City - Jawatta,6.8950131,79.8667754,"60 Jawatta Rd, Colombo",4.0
ChIJGa89omXJ4joR2JMUzCaaxTk,578.0,"supermarket,grocery_or_supermarket,food,store,point_of_interest,establishment",,,left_only,Cargills Food City - Chilaw 2,7.5689382,79.79895789999999,"98 Chilaw - Colombo Main Rd, Chilaw",4.1
ChIJGdjr3bxa4joRgdC-zPd_aag,261.0,"grocery_or_supermarket,food,store,point_of_interest,establishment",,,left_only,Cargills Food City,6.8329309,79.9067499,"Horana Rd, Boralesgamuwa",4.1
ChIJGevX95nv4joR_zh_rOFgeto,209.0,"supermarket,grocery_or_supermarket,food,store,point_of_interest,establishment",,,left_only,Cargills Food City Express - Andiambalama,7.1867065,79.9024865,"No. No. 223 D, Minuwangoda Rd",4.0
ChIJH1rSWLlb4joRwIFn2SZV98Q,142.0,"grocery_or_supermarket,food,store,point_of_interest,establishment",Colombo,142.0,both,Cargills Food City - Bauddhaloka Mawatha,6.896239599999999,79.8582368,"Bauddhaloka Mawatha, Colombo",4.3
ChIJH5xGXCxX4joRCytzzrdfnh8,40.0,"supermarket,grocery_or_supermarket,store,food,point_of_interest,establishment",,,left_only,Cargills Food City,6.9035167,79.95679229999999,"290 Kaduwela Rd, Malabe",3.9
ChIJHZ9MRC9F4zoRMM_2UzGX7pU,627.0,"supermarket,grocery_or_supermarket,store,food,point_of_interest,establishment",Matale,627.0,both,Cargills Food City - Matale 1,7.474261800000001,80.6225225,"99 A, King Street, No. 95 Kandy Rd, Matale",4.1
ChIJHdTqzQtj5DoRB-amQWekQB8,162.0,"supermarket,grocery_or_supermarket,store,point_of_interest,food,establishment",Badulla,162.0,both,Cargills Food City - Badulla 2,6.9899703,81.0519533,"X3R2+3PP, Badulla",4.4
ChIJHw36iAJ35DoREOzZplZssNI,130.0,"supermarket,grocery_or_supermarket,food,store,point_of_interest,establishment",,,left_only,Cargills Foodcity Express - Haldummulla,6.7628589,80.8880441,Colombo - Ratnapura - Wellawaya - Batticaloa Rd,4.4
ChIJI42LKgA74zoRDBshGISX1Xo,18.0,"supermarket,grocery_or_supermarket,food,store,point_of_interest,establishment",,,left_only,Cargills Express Foodcity,7.4220457,80.32937179999999,"C8CH+RP9, Pothuhera",4.3
ChIJI5tgFAIV_DoRnDyZW5t8928,844.0,"supermarket,grocery_or_supermarket,store,point_of_interest,food,establishment",Vavuniya,844.0,both,Cargills Food City - Vavuniya,8.752324,80.4978186,"137 Kandy Rd, Vavuniya",4.2
ChIJI9a3_F5m4zoRzHQFjYf0EL4,722.0,"supermarket,grocery_or_supermarket,food,store,point_of_interest,establishment",,,left_only,Cargills Food City - Kundasale,7.2802929,80.6740597,"7MJF+4J7, A26, Nattarampota",4.1
ChIJIQq1nyfN4zoRqjE0lL5YHug,499.0,"supermarket,convenience_store,pharmacy,grocery_or_supermarket,health,food,store,point_of_interest,establishment",,,left_only,Cargills Food City කාගිල්ස් ෆුඩ් සිටි,6.522431399999999,80.1121347,"93 Kalutara-Matugama Rd, Matugama",4.1
ChIJITAPofe65joR1Tply3SbEqA,423.0,"supermarket,grocery_or_supermarket,food,store,point_of_interest,establishment",Hambantota,423.0,both,Cargills Food City - Ambalantota,6.1222693,81.0186658,"129, Jayantha Building, Tangalle Road, Ambalantota",4.2
ChIJITl1VK3x4joR_XfYhyq5TSk,307.0,"supermarket,grocery_or_supermarket,store,food,point_of_interest,establishment",,,left_only,Cargills Food City - Raddolugama,7.1376202,79.8997217,"4VQX+2VX, Katunayake",4.2
ChIJIUIx2_c54zoRwV5F9tPPYUE,965.0,"supermarket,grocery_or_supermarket,store,food,point_of_interest,establishment",Kurunegala,965.0,both,Cargills Food City - Kurunegala 1,7.488451700000001,80.36065529999999,"44 Negombo Rd, Kurunegala",4.2
ChIJIaIGxO0b4zoRej1i6VGmVpE,708.0,"supermarket,liquor_store,grocery_or_supermarket,store,point_of_interest,food,establishment",,,left_only,Cargills Food City - Warakapola,7.228562399999999,80.20039980000001,"97 Kandy Rd, Warakapola",4.0
ChIJId_eLME_4ToRLcTDvX_kYO8,319.0,"supermarket,grocery_or_supermarket,store,point_of_interest,food,establishment",Matara,319.0,both,Cargills Food City - Walgama,5.9418307,80.5123179,"19, 35 Samagi Mawatha, Matara",4.5
ChIJJ0ibOz-l_DoRz0n1V382Qck,1169.0,"supermarket,grocery_or_supermarket,food,store,point_of_interest,establishment",,,left_only,Cargills Food City - Dambulla 1,7.8782047,80.6503164,"643, Anuradhapura Road, Dambulla",4.1
ChIJJ2J1KQBZ4joRaOm1dZ0YsAk,,,Colombo,1.0,right_only,Cargills food city iconic,6.9074623,79.8905719,"110 Parliament Road, Sri Jayawardenepura Kotte, Sri Lanka",5.0
ChIJJ4WzVLkx4joRj-lMjNs7D3k,175.0,"supermarket,grocery_or_supermarket,food,store,point_of_interest,establishment",,,left_only,Cargills Food City Express Maggona,6.503911599999999,79.9804389,"No. 396/5, Colombo - Galle - Hambantota - Wellawaya Hwy, Maggona",4.1
ChIJJ6anLc5Z4joR6rFYTTQDQro,260.0,"grocery_or_supermarket,store,point_of_interest,food,establishment",Colombo,260.0,both,Cargills Food Hall & Supermarket - Colombo City Centre,6.9173853,79.8555804,"No 137, Lower Ground floor, Sir James Pieris Mawatha, Colombo",4.1
ChIJJ8tHURNZ4joRMmIoQcL8w_o,18.0,"supermarket,grocery_or_supermarket,food,store,point_of_interest,establishment",Colombo,18.0,both,Cargills Food City Express On 320,6.919187,79.8592468,"320 Union Pl, Colombo",4.2
ChIJJUlZWN5b4joREPjZZ0MxFTQ,37.0,"supermarket,grocery_or_supermarket,food,store,point_of_interest,establishment",Colombo,37.0,both,Cargills Food City Express - IOC Fuel Station,6.894869799999999,79.85487549999999,"Galle Rd, Colombo",4.4
ChIJJUlZWN5b4joREPjZZ0MxFTQ,37.0,"supermarket,grocery_or_supermarket,food,store,point_of_interest,establishment",Galle,37.0,both,Cargills Food City Express - IOC Fuel Station,6.894869799999999,79.85487549999999,"Galle Rd, Colombo",4.4
ChIJJ_g6ePhb4joRWBIiybwRBYY,342.0,"grocery_or_supermarket,store,point_of_interest,food,establishment",Colombo,342.0,both,Cargills Food City - Saranankara Rd.,6.8730999,79.8710428,"Sri Saranankara Road, Dehiwala Road, Dehiwala-Mount Lavinia",4.1
ChIJJxkJBgBZ4joR_hAjhsxEZyA,,,Colombo,2.0,right_only,Cargills Food City - Dematagoda,6.9286699,79.87823999999999,"44 Dr Danister De Silva Mawatha, Colombo 00900, Sri Lanka",4.5
ChIJK8QZHo9Z4joRktwt4nfRxv4,,,Colombo,97.0,right_only,Cargills Food City Express - Royal Park,6.906039199999999,79.8882919,"115 Lake Dr, Colombo, Sri Lanka",4.2
ChIJK8y_dZRQ4joRbxnHrWvV_Po,750.0,"supermarket,grocery_or_supermarket,food,store,point_of_interest,establishment",,,left_only,Cargills Food City - Thalawathugoda,6.8734761,79.9380019,"205/S, Pannipitiya Rd",4.2
ChIJKVGcju-A4ToRrOTpTL_C19Y,345.0,"supermarket,grocery_or_supermarket,food,store,point_of_interest,establishment",,,left_only,Cargills Food City Express - Balapitiya,6.280943,80.040612,"A2, Balapitiya",4.1
ChIJKWJUIZRZ4joRXRqicHL0abE,71.0,"grocery_or_supermarket,food,store,point_of_interest,establishment",Colombo,71.0,both,Cargills Food City - Kompannavidiya,6.9255871,79.8494609,Colombo,4.1
ChIJKWJUIZRZ4joRXRqicHL0abE,71.0,"grocery_or_supermarket,food,store,point_of_interest,establishment",Galle,71.0,both,Cargills Food City - Kompannavidiya,6.9255871,79.8494609,Colombo,4.1
ChIJKYrkScz94joRrJE0wc8td-U,,,Gampaha,117.0,right_only,Cargills Food City (Express) - Yakkala,7.0846822,80.0349423,"32MM+VXG, Yakkala-Radawana Rd,Yakkala, North, Sri Lanka",4.0
ChIJKZe14sNo4zoRLA80amN-4hg,1280.0,"supermarket,grocery_or_supermarket,store,point_of_interest,food,establishment",,,left_only,Cargills Food City - Getambe,7.2707766,80.60480830000002,"No. 496, Peradeniya",4.1
ChIJK_sXAB5b4joR7bizUA1io1c,,,Colombo,111.0,right_only,Cargills Food City - Pitakotte 2,6.8839614,79.9001068,"139 Pagoda Rd, Sri Jayawardenepura Kotte 10100, Sri Lanka",4.3
ChIJKbMk19TD4joRoRgFJXcy-E0,141.0,"supermarket,grocery_or_supermarket,food,store,point_of_interest,establishment",,,left_only,Cargills Food City Express - Katuneriya,7.3657634,79.8328148,"St. Anthonies Building, Chilaw Rd, Katuneriya",3.9
ChIJL3LLSm1Q4joRQ8KmHCW1jBs,330.0,"supermarket,grocery_or_supermarket,food,store,point_of_interest,establishment",,,left_only,Cargills Food City Express Godigamuwa,6.836494399999999,79.9317509,"No 263, Piliyandala Road, Maharagama",4.2
ChIJLXSM_Qy_4zoRGtBqKuTKlFA,913.0,"supermarket,grocery_or_supermarket,food,store,point_of_interest,establishment",Ratnapura,913.0,both,Cargills Food City - Rathnapura 1,6.6791445,80.40212029999999,"Municipal Commercial Complex, Colombo - Batticaloa Hwy, Ratnapura",4.1
ChIJLa51e8RL4ToRltpYpwuM2ZM,321.0,"supermarket,grocery_or_supermarket,food,store,point_of_interest,establishment",,,left_only,Cargills Food City (Express) - Beliatta,6.0464126,80.7357466,"2PWP+H7P, No. 52, Tangalle Road, Beliatta",4.0
ChIJLw5BJE1b4joRQv0sWnxqKbw,38.0,"grocery_or_supermarket,food,store,point_of_interest,establishment",Colombo,38.0,both,Cargills Food Hall -Havelock City Mall,6.882587099999999,79.8681683,"Havelock City, Havelock Rd, Colombo",3.1
ChIJM2tZLQCd5joRrtiLhg2i51c,23.0,"store,point_of_interest,establishment",,,left_only,Cargills Food City (Express) - Debarawewa,6.279865099999999,81.2659037,"77J8+288, Debarawewa",4.5
ChIJMQwVSZou4joRH-7scedKVME,504.0,"supermarket,grocery_or_supermarket,food,store,point_of_interest,establishment",,,left_only,Cargills Food City Express - Benthota,6.423032399999999,79.9991747,"118 Pahurumulla, Asian Highway 43, Bentota",4.1
ChIJMd6c6n5x4ToRh2UeGp3qLHc,992.0,"supermarket,grocery_or_supermarket,store,point_of_interest,food,establishment",Galle,992.0,both,Cargills Food City - Karapitiya 1,6.068023,80.2280809,"Labuduwa Rd, Galle",4.1
ChIJMxSq6Stm4zoRaMW0LdIKU3A,1555.0,"supermarket,grocery_or_supermarket,store,point_of_interest,food,establishment",Kandy,1555.0,both,Cargills Food City - Kandy,7.2928776,80.63710569999999,"3 Ward St, Kandy",4.2
ChIJMyFoRltf4ToR5zKMxt-pQB8,95.0,"supermarket,grocery_or_supermarket,store,food,point_of_interest,establishment",,,left_only,Cargills Food City (Express) - Morawaka,6.2625267,80.4913266,"7F7R+2G8, Galle-Deniyaya-Madampe Hwy, Morawaka",4.3
ChIJN3HAEQBb4joRe_aF_OOSZgc,1.0,"supermarket,grocery_or_supermarket,store,point_of_interest,food,establishment",Colombo,1.0,both,Cargills Food City WELLAWATTA 2,6.87652,79.8603499,"Mosque Bus Stop, 50 Galle Rd, Colombo",5.0
ChIJN3HAEQBb4joRe_aF_OOSZgc,1.0,"supermarket,grocery_or_supermarket,store,point_of_interest,food,establishment",Galle,1.0,both,Cargills Food City WELLAWATTA 2,6.87652,79.8603499,"Mosque Bus Stop, 50 Galle Rd, Colombo",5.0
ChIJN9XZ56K9-zoRwfsIodEtwx8,262.0,"supermarket,grocery_or_supermarket,store,point_of_interest,food,establishment",,,left_only,Cargills Express - Trincomalee,8.5850746,81.2181976,"2 Ambepussa - Kurunegala - Trincomalee Hwy, Trincomalee",4.2
ChIJN9h9z9fL4joRAGQuf0iUoUQ,456.0,"supermarket,grocery_or_supermarket,food,store,point_of_interest,establishment",,,left_only,Cargills Food City - Chilaw 1,7.5787515,79.7939434,"1 Jetty St, Chilaw",4.1
ChIJNU--F7dX4joRpIFXSvj0N70,346.0,"supermarket,grocery_or_supermarket,food,store,point_of_interest,establishment",,,left_only,Cargills Food City - Kothalawala,6.920122,79.97402509999999,"No. No 314/3,316/A, 316 New Kandy Rd, Colombo",4.0
ChIJNZ0O4bMW4zoRzJHgbuDvu4A,487.0,"supermarket,grocery_or_supermarket,store,point_of_interest,food,establishment",Kegalle,487.0,both,Cargills Food City - Kegalle 1,7.253946399999998,80.3502343,"449/1 Kandy - Colombo Rd, Kegalle",4.2
ChIJNdeYFQJb4joR5AGzUTQdZ9k,556.0,"supermarket,grocery_or_supermarket,food,store,point_of_interest,establishment",,,left_only,Cargills Food City - Karagampitiya,6.849980599999999,79.8731349,"176 Dehiwala-Maharagama Rd, Dehiwala-Mount Lavinia",3.9
ChIJNwgNfTBY4joRi_vhVMuCHFU,452.0,"supermarket,grocery_or_supermarket,store,food,point_of_interest,establishment",,,left_only,Cargills Food City - Pethiyagoda,6.951871100000001,79.9052452,"16 Biyagama Rd, Pethiyagoda",4.0
ChIJO4YDUtaU_joR8LX6QXT9L1k,395.0,"grocery_or_supermarket,store,food,point_of_interest,establishment",Kilinochchi,395.0,both,Cargills Food City - Kilinochchi,9.4061536,80.4082792,"CC45+F86, Kilinochchi",4.2
ChIJOUPWcjcd4zoRY1KIuYj8e9E,685.0,"supermarket,grocery_or_supermarket,store,point_of_interest,food,establishment",,,left_only,Cargills Food City - Pilimathalawa 1,7.265174600000001,80.55788489999999,"178 A1, Pilimathalawa",4.2
ChIJOaGu_AwW_ToRgD4nlY5Zp0I,442.0,"supermarket,grocery_or_supermarket,food,store,point_of_interest,establishment",Puttalam,442.0,both,Cargills Food City - Puttalam,8.027273899999999,79.83770559999999,"97B Katugastota-Kurunegala, Puttalam Hwy, Puttalam",4.0
ChIJPWLUd7st4zoRT7KvujUXOOU,495.0,"grocery_or_supermarket,food,store,point_of_interest,establishment",,,left_only,Cargills Food City - Wariyapola,7.618042399999998,80.2479312,Wariyapola,4.2
ChIJPXM1UHXl4joR0iCDuVBSO8U,292.0,"supermarket,grocery_or_supermarket,store,point_of_interest,food,establishment",,,left_only,Cargills Food City - Minuwangoda 2,7.1707259,79.95027619999999,"74 B208, Minuwangoda",4.1
ChIJPXg7YgBV_joRZiJnloLawH0,8.0,"supermarket,grocery_or_supermarket,food,store,point_of_interest,establishment",,,left_only,Cargills Food City (Express) - Kondavil,9.70218,80.03540290000001,"P22P+V5V, Kondavil",4.0
ChIJPYQLxMC8-zoRA-CN-Wljz-c,1393.0,"supermarket,grocery_or_supermarket,store,point_of_interest,food,establishment",Trincomalee,1393.0,both,Cargills Food City - Trincomalee,8.5775762,81.2280895,"190 Thiruganansampanthar Street, Trincomalee",4.2
ChIJPcP-K-l75DoRdXPaGvaoFuU,407.0,"supermarket,grocery_or_supermarket,food,store,point_of_interest,establishment",,,left_only,Cargills Food City - Welimada,6.903517,80.91281,"11 Peradeniya-Badulla-Chenkaladi Hwy, Welimada",4.1
ChIJPeSxV0xa4joRtmpp-oZEcU8,,,Colombo,584.0,right_only,Cargills Food City - Bernards,6.8703941,79.87749819999999,"106/3 Dutugemunu St, Kohuwala, Sri Lanka",4.1
ChIJPfPP6XBQ4joRtVpfvVLxHMM,2781.0,"supermarket,grocery_or_supermarket,food,store,point_of_interest,establishment",,,left_only,Cargills Food City - Maharagama 1,6.845314699999999,79.9265791,"75 B94, Maharagama",4.1
ChIJQ2Cxfuym4zoRjF-Hz_lUsYw,181.0,"supermarket,grocery_or_supermarket,food,store,point_of_interest,establishment",,,left_only,Cargills Food City Express - Deraniyagala,6.9280621,80.33772479999999,"No. 58, Dehiowita Road, Deraniyagala",4.1
ChIJQ6-HEotz4ToRN5dVgAWGGnE,147.0,"supermarket,grocery_or_supermarket,store,point_of_interest,food,establishment",Galle,147.0,both,Cargills Food City (Express) - Galle Fort,6.024795,80.2180412,"74 Church St, Galle",4.5
ChIJQRXXtaGl_DoRfECLc0vNKs4,670.0,"supermarket,grocery_or_supermarket,food,store,point_of_interest,establishment",,,left_only,Cargills Food City - Dambulla 2,7.871088299999998,80.6487002,"VJCX+CFP, Dambulla",4.4
ChIJQRb8PjZZ4joRlGppYJT5h4o,112.0,"grocery_or_supermarket,store,point_of_interest,food,establishment",Colombo,112.0,both,Cargills Food City - Aluthkade,6.940123499999999,79.86479039999999,"169 Srimath Bandaranayake Mawatha, Colombo",4.0
ChIJQX2BQEp_4ToRK98-yp14FQY,17.0,"grocery_or_supermarket,food,store,point_of_interest,establishment",,,left_only,Cargills Food City Express - Kurundugaha hetekma,6.274593899999999,80.137919,"74FQ+R5F, Kurundugahahetekma",4.3
ChIJQXynwvNW4joRgcpVRmPGqS4,709.0,"supermarket,grocery_or_supermarket,food,store,point_of_interest,establishment",,,left_only,Cargills Food City - Kaduwela 1,6.937002199999999,79.979978,"125A, AB10, Kaduwela",4.1
ChIJQ_stnkxQ4joRlqEgrxdzpuQ,668.0,"supermarket,grocery_or_supermarket,food,store,point_of_interest,establishment",,,left_only,Cargills Food City - Kottawa 1,6.840717199999999,79.9670005,"867 High Level Rd, Pannipitiya",4.1
ChIJQbSO7mzb_DoR1y2fXIVlm9o,57.0,"supermarket,grocery_or_supermarket,store,point_of_interest,food,establishment",,,left_only,Cargills Foodcity express - Ambanpola,7.918425699999999,80.2399182,"5 Kurunegala Road, Ambanpola",4.2
ChIJR58vB9bX4zoRr-OsqzGWbTo,47.0,"supermarket,grocery_or_supermarket,food,store,point_of_interest,establishment",,,left_only,Cargills Food City (Express) - Pitigala,6.335581599999999,80.2216562,"86PC+6MJ, Pitigala",4.1
ChIJS2ieGEno4joRovi0KMWh4DM,377.0,"supermarket,grocery_or_supermarket,food,store,point_of_interest,establishment",,,left_only,Cargills Food City - Dankotuwa,7.298172000000001,79.882278,"35, 37 Natthandiya Road, Dankotuwa",4.0
ChIJS6BD3JhE-zoRbiE12pSyHfI,562.0,"supermarket,grocery_or_supermarket,food,store,point_of_interest,establishment",Polonnaruwa,562.0,both,Cargills Food City - Polonnaruwa,7.942513599999999,81.01224549999999,"Maradankadawala-Habarana-Thirukkondaiadimadu Hwy, Polonnaruwa",4.3
ChIJS6UU9soW4zoRbPXbqAEFDWg,506.0,"supermarket,grocery_or_supermarket,store,point_of_interest,food,establishment",Kegalle,506.0,both,Cargills Food City - Kegalle 2,7.2511459,80.3419131,"123 Nidahas Mawata, Kegalle",4.2
ChIJSXVSrAEf4zoRvAX4pfDdzAA,28.0,"grocery_or_supermarket,store,point_of_interest,food,establishment",,,left_only,Cargills Food City Express - Kandalama,7.2722875,80.1375679,No 10,4.3
ChIJSdM-b5BZ4joReIscY2oVUjc,965.0,"supermarket,pharmacy,grocery_or_supermarket,health,food,store,point_of_interest,establishment",Colombo,965.0,both,Cargills Food City - Cotta Road,6.911473399999999,79.88667699999999,"260 Dr NM Perera Mawatha Rd, Colombo",3.9
ChIJSymjHACl5joRY4M8i-79PeA,,"grocery_or_supermarket,store,point_of_interest,food,establishment",,,left_only,Cargills food city,6.1794943,81.04352879999999,Ambalantota Rd,
ChIJT1HY9x454zoR19UpFzrmQMI,200.0,"grocery_or_supermarket,food,store,point_of_interest,establishment",,,left_only,Cargills Food City - Mawathagama,7.4357292,80.4410364,"CCMQ+CGG, Mawathagama",4.4
ChIJT22grpru4joR2CPk70JdEY0,166.0,"supermarket,grocery_or_supermarket,store,point_of_interest,food,establishment",,,left_only,Cargills Food City Express - Greens Road,7.206067799999999,79.84044949999999,"No.138, 140 Greens Rd, Negombo",3.9
ChIJT5A8E_gV5ToRO6jo2Z9LI3Y,47.0,"supermarket,grocery_or_supermarket,store,point_of_interest,food,establishment",,,left_only,Cargills Food City Express - Nintavur,7.3543776,81.8438204,"9R3V+PGP, Nintavur",4.4
ChIJT7QGx5EV4zoRLCqSVPdOvOQ,87.0,"supermarket,grocery_or_supermarket,store,food,point_of_interest,establishment",,,left_only,Cargills Food City Express - Rambukkana,7.323112699999999,80.39563919999999,"89FW+67R, Katupitiya Road, Rambukkana",4.2
ChIJT7nS4WZp4zoRPwbzuesg9G4,85.0,"supermarket,grocery_or_supermarket,food,store,point_of_interest,establishment",,,left_only,Cargills Food City Nugawela,7.327371599999999,80.5950278,"Kurunegala road, Nugawela",4.6
ChIJT93Fy1FX4joRV6WLQNBKlRA,1335.0,"supermarket,grocery_or_supermarket,food,store,point_of_interest,establishment",,,left_only,"Cargills Food City - Koswatta 2, කාර්ගිල්ස් - කොස්වත්ත",6.9070808,79.9300057,Sri Jayawardenepura Kotte,4.2
ChIJT_3DRzFX4joRSRdK0U2jmx0,720.0,"supermarket,grocery_or_supermarket,store,point_of_interest,food,establishment",,,left_only,Cargills Food City - Thalahena,6.907203099999999,79.9457147,"No. 723, Thalahena",3.9
ChIJTbSRamha4joRYAx0Qqfpbvg,537.0,"supermarket,grocery_or_supermarket,food,store,point_of_interest,establishment",,,left_only,Cargills Food City - Kattiya Junction,6.8688994,79.8984586,"Nugegoda Flyover, Nugegoda",4.2
ChIJTcu1THup4zoRrss4mdEJy94,291.0,"supermarket,grocery_or_supermarket,food,store,point_of_interest,establishment",,,left_only,Cargills Food City Express - Puwakpitiya,6.9373602,80.1941552,"402,404,392/E,Colombo Road, Avissawella",4.2
ChIJTwWByDtZ4joRZ-yC88UEwe4,88.0,"supermarket,grocery_or_supermarket,food,store,point_of_interest,establishment",Colombo,88.0,both,Cargills Express - Wijerama Mawatha,6.9121849,79.8707781,"33 Wijerama Mawatha, Colombo",4.4
ChIJTz-tG9g44ToRAGNC0UMkTIQ,638.0,"supermarket,grocery_or_supermarket,store,point_of_interest,food,establishment",Matara,638.0,both,Cargills Food City - Matara 2,5.9430868,80.55446859999999,"No. 28, 37 Araliya Mawatha",4.4
ChIJU5RMFQVx4ToRhZQn70Nw64I,226.0,"supermarket,grocery_or_supermarket,store,point_of_interest,food,establishment",,,left_only,Cargills Food City (Express) - Hapugala,6.073818,80.197842,"B130, Hapugala",4.1
ChIJU95Jj9QB5DoRg0-poTbj_ig,548.0,"supermarket,grocery_or_supermarket,store,point_of_interest,food,establishment",,,left_only,Cargills Food City - Embilipitiya,6.3314768,80.85675979999999,"51, Nonagama Road, Pallegama, Embilipitiya",4.2
ChIJUQNcWR934ToR_ZtqPyw4nZY,112.0,"supermarket,grocery_or_supermarket,store,point_of_interest,food,establishment",,,left_only,Cargills Food City (Express) - Arachchikanda,6.1417924,80.1325713,"44RM+P28, Arachchikanda",4.2
ChIJUW7YP4hn4zoRcNhyKbwD_gs,292.0,"supermarket,grocery_or_supermarket,store,point_of_interest,food,establishment",,,left_only,Cargills Food City - Lewella,7.2989022,80.65066720000002,"185 Dharmashoka Mawatha, Kandy",4.2
ChIJUW_XmyZZ4joRjUkgvd8Jr0E,1249.0,"grocery_or_supermarket,food,store,point_of_interest,establishment",Colombo,1249.0,both,Cargills (Ceylon) PLC,6.9356673,79.8447204,"40 York St, Colombo",4.1
ChIJV2HzVVx54ToRv6zJw7_z8cc,216.0,"supermarket,grocery_or_supermarket,store,point_of_interest,food,establishment",,,left_only,Cargills Foodcity Express - Baddegama,6.1652244,80.17964219999999,"558H+3RX, Baddegama",4.2
ChIJV3-031Fy4ToRzHTzuPxSepc,472.0,"supermarket,grocery_or_supermarket,store,point_of_interest,food,establishment",Galle,472.0,both,Cargills Food City (Express) - Katugoda,6.0330145,80.2390163,"No. 1/389, Matara Road Katugoda",4.1
ChIJVTu1Agv54zoRgn2OTlqWlHo,138.0,"store,point_of_interest,establishment",,,left_only,Cargills Food City,6.4103765,80.79738549999999,"CQ6W+5X2, Udawalawa",4.4
ChIJVUSxiqhb4joRXTLiUuytJyc,934.0,"grocery_or_supermarket,supermarket,store,point_of_interest,food,establishment",,,left_only,Cargills Food City - Dehiwala,6.8589452,79.8646893,"65 A, A2, Dehiwala-Mount Lavinia",3.7
ChIJVV-jL1uc5joRtxLcD8kkOOQ,954.0,"supermarket,grocery_or_supermarket,store,point_of_interest,food,establishment",,,left_only,Cargills Food City - Tissamaharama,6.278581,81.2855518,"77HP+C6M, Tissamaharama",4.2
ChIJVVVVFeJP4joRU3z27Ya7erQ,213.0,"supermarket,grocery_or_supermarket,food,store,point_of_interest,establishment",,,left_only,Cargills Food City Express - Makuluduwa,6.8137628,79.9360363,"Cargills Food City Express, Piliyandala",4.2
ChIJVVVVVQEm5DoR158kv7Ot474,742.0,"supermarket,grocery_or_supermarket,store,point_of_interest,food,establishment",,,left_only,Cargills Food City (Express) - Kataragama,6.415672,81.3317751,"No 53/1/1/2, Sella Road, Kataragama",4.1
ChIJVVVVVRLw4zoRZIAXPu4HMS0,171.0,"supermarket,grocery_or_supermarket,store,point_of_interest,food,establishment",,,left_only,Cargills Food City (Express) - Godakawela,6.5041825,80.652869,"Main Street, Godakawela",4.4
ChIJVVVVVVYT4zoRr3K49QFuGOk,9.0,"supermarket,grocery_or_supermarket,store,point_of_interest,food,establishment",,,left_only,Cargills Food City Express - Rambukkana,7.248083800000001,80.4464808,"No 57, Mawanella Road, Rambukkana",4.7
ChIJVVVVVZGv4zoRuRpiABxnoco,419.0,"supermarket,grocery_or_supermarket,food,store,point_of_interest,establishment",,,left_only,Cargills Food City -Eheliyagoda,6.8550379,80.2602177,"Main Street, Eheliyagoda",4.0
ChIJVVVVVbDS4zoRnu6vhj3V5Q0,532.0,"supermarket,grocery_or_supermarket,food,store,point_of_interest,establishment",,,left_only,Cargills Food City Express - Southern Highway - A,6.4687679,80.0793716,"Cargills Food City Express B, Canowin Arcade, Welipenna Rest Area, Welipenna",4.0
ChIJVWNxitj34joRJoKUqGLgoQo,762.0,"supermarket,grocery_or_supermarket,store,food,point_of_interest,establishment",,,left_only,Cargills Food City - Wattala 1,6.984894799999999,79.8885652,"XVPQ+279 Food City Shopping Complex, 315 Negombo Rd, Wattala",3.9
ChIJVWxU4csV_DoRG08Lnxvtb4k,107.0,"supermarket,grocery_or_supermarket,store,point_of_interest,food,establishment",,,left_only,Cargills Express,8.7627588,80.497655,"52 A9, Vavuniya",4.2
ChIJVeyzzsdb4joRhrvf64b6dYI,,,Colombo,247.0,right_only,Cargills Express- Narahenpita,6.893104399999999,79.87673339999999,"506 Narahenpita Rd, Colombo 00500, Sri Lanka",4.0
ChIJWWMhR_xY4joRvEV7cXzMdlw,729.0,"supermarket,grocery_or_supermarket,food,store,point_of_interest,establishment",,,left_only,Cargills Food City - Grandpass,6.9443525,79.8670694,"No. 130/C, Layard's Broadway, Granpass, Colombo 14, 130 Layard's Broadway, Colombo",3.8
ChIJWWluR5cz5ToRY9LmJGVZFbg,402.0,"supermarket,grocery_or_supermarket,store,point_of_interest,food,establishment",,,left_only,"Cargills Food City, Manchanthoduwai",7.688470999999999,81.72393439999999,"No. 488, New Kalmunai Road, Manchanthoduwaii, (Kathankudy) Kallady",4.1
ChIJWZVVmgY34joRDayLSr319os,,,Kalutara,518.0,right_only,Cargills Food City Kalutara North,6.599941299999999,79.9565313,"264 Galle Rd, Kalutara, Sri Lanka",3.9
ChIJWw_jSJdb4joRO4joW7A7MLM,150.0,"grocery_or_supermarket,food,store,point_of_interest,establishment",Galle,150.0,both,Cargills Food City - Ratmalana 02,6.8186735,79.87436389999999,"417 Galle Rd, Colombo",4.0
ChIJWwaQ5Jbu4joRnqS8dY9bZfI,523.0,"supermarket,grocery_or_supermarket,store,point_of_interest,food,establishment",,,left_only,Cargills Food City - Negombo 1,7.2129155,79.8441532,"355 Main St, Negombo",4.0
ChIJWwtxqIxP4joRVWakjTnCoqI,535.0,"supermarket,grocery_or_supermarket,food,store,point_of_interest,establishment",,,left_only,Cargills Food City - Kolamunna,6.7934283,79.92498189999999,"QWQF+WC7, 20 Madapatha Rd, Piliyandala",4.2
ChIJWzldtyxb4joRjF2oEWfc3J0,115.0,"supermarket,grocery_or_supermarket,food,store,point_of_interest,establishment",,,left_only,Cargills Food City Express - Station Rd,6.8146356,79.86773529999999,"24 Sri Gnanendra Rd, Colombo",4.0
ChIJX2oxsBFZ4joRpceCU5vZ3tc,3.0,"supermarket,grocery_or_supermarket,food,store,point_of_interest,establishment",,,left_only,Cargills Food City Seeduwa 02,6.9270786,79.861243,"No.245, Colombo Road Seduwa",4.7
ChIJX61IoIGW_DoR3Ft6ZMbsa9Y,84.0,"supermarket,grocery_or_supermarket,food,store,point_of_interest,establishment",,,left_only,Cargills Food City - Ipalogama (Ranajayapura),8.0719119,80.5464811,"Ranajayapura Road, Ipalogama",4.2
ChIJXQJvu4KB4ToRkWGLYupuncI,386.0,"supermarket,grocery_or_supermarket,food,store,point_of_interest,establishment",,,left_only,Cargills Food City - Ambalangoda 1,6.23789,80.05430899999999,"98 A New Road, Ambalangoda",4.2
ChIJXULXsMtv5DoRq5jrA40CY88,34.0,"shopping_mall,point_of_interest,establishment",,,left_only,Cargills Square - Bandarawela,6.8310567,80.9884178,"7 Welimada Rd, Bandarawela",4.5
ChIJX_elTNC_4zoRR-AumrJTE2M,403.0,"supermarket,grocery_or_supermarket,food,store,point_of_interest,establishment",Ratnapura,403.0,both,Cargills Food City Rathnapura 3,6.6987769,80.3910526,"M9XR+GC7, Ratnapura",4.1
ChIJY0awo3zr4zoRDFS0JCeai0Y,504.0,"supermarket,grocery_or_supermarket,food,store,point_of_interest,establishment",,,left_only,Cargills Food City - Pelmadulla,6.6255812,80.5387446,115 Pelmadulla,4.1
ChIJY2iFzk6B4ToRD-FhKaTi1GE,1.0,"supermarket,grocery_or_supermarket,store,food,point_of_interest,establishment",,,left_only,Cargills Food City,6.240557,80.0536425,"No:107 or 107/3, Galle Rd, Kaluwamodara, Kaluwamodara, අලුත්ගම",3.0
ChIJYUC2qNtW4joRBacZ3PfXwiE,727.0,"supermarket,grocery_or_supermarket,food,store,point_of_interest,establishment",,,left_only,Cargills Food City - Welivita,6.914682,79.972061,"No 162/7, Ratna Building, New Kandy Rd, Weliwita Junction, Malabe",3.8
ChIJYeX1J1gT4ToRqlWofDDYinM,372.0,"supermarket,grocery_or_supermarket,store,point_of_interest,food,establishment",,,left_only,Cargills Food City (Express) - Ahangama,5.9725152,80.36390449999999,"No.55/A, Galle Rd, Ahangama",4.2
ChIJZ0VeCgir4zoRnTpNkpZjo5Q,251.0,"supermarket,grocery_or_supermarket,food,store,point_of_interest,establishment",,,left_only,Cargills Food City,6.941729199999999,80.1373675,"Railway Station, Kosgama",4.1
ChIJZ2-pSw6_4zoRcJHWUTcMfxI,156.0,"grocery_or_supermarket,food,store,point_of_interest,establishment",Ratnapura,156.0,both,Cargills Food City - Rathnapura 02,6.6845374,80.4008102,"MCM2+R87, Ratnapura",4.0
ChIJZRIoMx_J_DoR_sPXpWvhfJI,12.0,"grocery_or_supermarket,food,store,point_of_interest,establishment",,,left_only,Cargills food city Express Polpithigama,7.815238699999999,80.4043131,"RC73+WM9, Polpithigama",4.4
ChIJZWzoHuVZ4joRWZlP6Pcg9ZU,221.0,"supermarket,grocery_or_supermarket,store,food,point_of_interest,establishment",,,left_only,Cargills Food City - Kotikawatta 2,6.9384934,79.91587849999999,"198 Kohilawatte Rd, Kotikawatta",4.4
ChIJZZQ5jMrv4joRUeXOd9FHVoA,419.0,"grocery_or_supermarket,store,point_of_interest,food,establishment",,,left_only,Cargills Food City - Katunayaka,7.163455000000001,79.8833557,"36 Baseline Rd, Katunayake",4.2
ChIJZxz7vsRb4joRlMpxjhU-OD8,557.0,"supermarket,grocery_or_supermarket,store,point_of_interest,food,establishment",Colombo,557.0,both,Cargills Food City - Dickman's Road,6.8866714,79.8588934,"15 Dickmans Rd, Colombo",4.0
ChIJZzPN4C8_4ToRV8Y6CGjyMnI,411.0,"supermarket,grocery_or_supermarket,store,point_of_interest,food,establishment",Matara,411.0,both,Cargills Food City (Express) - Isadeen Town,5.9542363,80.5338647,"Akuressa Rd, Matara",3.9
ChIJ_3AjhNZR4joRaJEqrB9NvJM,539.0,"supermarket,grocery_or_supermarket,food,store,point_of_interest,establishment",,,left_only,Cargills Food City Express -Mattegoda,6.819178699999999,79.9701434,"No. 146, 83 Salmal Pedesa",3.9
ChIJ_SB9TUE34joR2nrXu1WgFmI,,,Kalutara,349.0,right_only,Cargills Food City - Wettumakada,6.5682176,79.9669462,"679 Galle Rd, Kalutara, Sri Lanka",4.4
ChIJ_VpxZQCz5joRpy4r7WMZ-xs,,"supermarket,grocery_or_supermarket,food,store,point_of_interest,establishment",,,left_only,Cargills food city express,6.0935429,80.8626864,"3VV7+C37, Ranna",
ChIJ__87BDgV4ToRvq7bEi9ld74,1168.0,"grocery_or_supermarket,store,point_of_interest,food,establishment",,,left_only,Cargills Food City - Weligama,5.9732912,80.4322157,"Cargills Food City, Weligama",4.1
ChIJ__SIDzsV4ToRMKikHGiIHkE,4.0,"pharmacy,health,store,point_of_interest,establishment",,,left_only,Cargills Pharmacy,5.973296200000001,80.4322196,"Cargills Food City, Weligama",4.5
ChIJ____D-xC4zoRfaBWnHvPov8,,"supermarket,grocery_or_supermarket,food,store,point_of_interest,establishment",,,left_only,Cargills Food City,7.3654715,80.6042434,Bamunupola,
ChIJ_eFob-Ja4joRjW_em7Rt-a8,569.0,"supermarket,grocery_or_supermarket,food,store,point_of_interest,establishment",,,left_only,Cargills Food City,6.8433537,79.8754931,"Kawdana Gardens, Dehiwala-Mount Lavinia",3.9
ChIJ_f54q0Y64zoRMDm1pU1W2Jk,226.0,"grocery_or_supermarket,food,store,point_of_interest,establishment",Kurunegala,226.0,both,Cargills Food City Express Malkaduwawa,7.477780699999999,80.33834019999999,"F8HQ+48G, Kurunegala",4.1
ChIJa8TwYvqz4zoRpEZJhZaRQSM,164.0,"grocery_or_supermarket,food,store,point_of_interest,establishment",,,left_only,Cargills Food City - Ingiriya - කාර්ගීල්ස් ඉංගිරිය,6.7436862,80.177191,"Ratnapura Road, Ingiriya",4.0
ChIJaRJEcgS95joRPj3_GMKTGi4,412.0,"supermarket,grocery_or_supermarket,food,store,point_of_interest,establishment",Hambantota,412.0,both,Cargills Food City - Hambanthota,6.1283566,81.12586689999999,"Thissa Road, Hambanthota",4.1
ChIJaSI0httr4zoRbXlwyMDjkX0,734.0,"supermarket,grocery_or_supermarket,store,point_of_interest,food,establishment",,,left_only,Cargills Food City Pilimathalawa 02,7.2641379,80.5497498,"Kandy - Colombo Rd, Pilimathalawa",4.2
ChIJaSz1rVhF4joRLwRwe1y8HI0,483.0,"supermarket,grocery_or_supermarket,food,store,point_of_interest,establishment",,,left_only,Cargills Food City - Piliyandala 02,6.799733799999999,79.9187836,"Moratuwa - Piliyandala Rd, Piliyandala",4.2
ChIJaVFUEOnZ_ToRgKJCGL8DSR8,393.0,"supermarket,grocery_or_supermarket,food,store,point_of_interest,establishment",Mannar,393.0,both,Cargills Food City Express - Mannar,8.9783337,79.9186143,"No Road 01 ,Pallimulei, Mannar",4.1
ChIJa_cXQ-7p4joRl9JDQK7ZNuk,23.0,"grocery_or_supermarket,food,store,point_of_interest,establishment",,,left_only,Cargills Food City Express - Bolawatta,7.2905455,79.8524174,"7VR3+355, Waikkal",4.3
ChIJa_uHFTzi4zoRZmOuPVwVuAM,333.0,"supermarket,grocery_or_supermarket,store,food,point_of_interest,establishment",,,left_only,Cargills Food City Express - Deniyaya,6.3466076,80.5594007,"No. 04 Pallegama Road, Deniyaya",4.0
ChIJayKdEoKB4ToR76QO2i8Ig2w,394.0,"supermarket,grocery_or_supermarket,food,store,point_of_interest,establishment",,,left_only,Cargills Food City - Ambalangoda 2,6.2347734,80.0542352,"63M3+WM4, A2, Ambalangoda",4.1
ChIJb0Fk6uHp4joRqk0bNUULjCc,73.0,"supermarket,grocery_or_supermarket,food,store,point_of_interest,establishment",,,left_only,Cargills Food City Express - Katana,7.2544824,79.9129682,"95 Negombo - Giriulla Rd, Katana",4.5
ChIJb2G72kFa4joRWmPHtsB4NiA,425.0,"supermarket,pharmacy,grocery_or_supermarket,health,food,store,point_of_interest,establishment",Colombo,425.0,both,Cargills Food City - Stanley Tillekarathne Mawatha,6.874745,79.89604489999999,"Stanley Thilakarathna Mawatha, Nugegoda",4.1
ChIJb4CVXSsx4joROewHrpv2mEs,,,Kalutara,434.0,right_only,Cargills Food City- katukurunda 1,6.5615501,79.9691584,"Cargils Building, 919 Galle Rd, KT1 1AF, Sri Lanka",4.0
ChIJbQCiRG9x4ToRsyP_etS2Ia4,141.0,"supermarket,grocery_or_supermarket,store,point_of_interest,food,establishment",Galle,141.0,both,Cargills Food City (Express) - Labuduwa,6.0717471,80.23799939999999,"36CQ+M5X, Galle - Mapalagama Rd, Galle",4.3
ChIJbS2aU6VQ4joR81tlmm-5VPE,1318.0,"supermarket,grocery_or_supermarket,food,store,point_of_interest,establishment",,,left_only,Cargills Food City - Pelawatte,6.8880308,79.93040069999999,"419, Pannipitiya Rd, Thalangama South Pelawatta",4.2
ChIJbaOpEtZP4joRAtjaXOZRVyw,443.0,"supermarket,grocery_or_supermarket,food,store,point_of_interest,establishment",,,left_only,Cargills Food City Express - Siddamulla,6.8147515,79.95781579999999,"No: 77, Sangarama Road",4.1
ChIJbdMJAj6n-zoRJwgjxEzVFB0,28.0,"supermarket,grocery_or_supermarket,store,food,point_of_interest,establishment",,,left_only,Cargills Food City (Express) - Mutur,8.4559396,81.26090839999999,"Main Street, Mutur",4.0
ChIJbe2VXwBL4ToR3pvlPjuwo-g,22.0,"supermarket,grocery_or_supermarket,food,store,point_of_interest,establishment",,,left_only,Cargills Food City Tangalle 02,6.0278627,80.7952083,"75 Matara Rd, Tangalle",5.0
ChIJbybLwThb4joRgngTKawxdm8,640.0,"supermarket,grocery_or_supermarket,food,store,point_of_interest,establishment",,,left_only,Cargills Food City Wijerama 02,6.857045299999999,79.9100866,"High Level Rd, Nugegoda",4.3
ChIJcSfFS3BZ4joRwT--zDOCj-Q,476.0,"supermarket,grocery_or_supermarket,food,store,point_of_interest,establishment",Colombo,476.0,both,Cargills Food City Express,6.9114743,79.8649743,"75 Dr CWW Kannangara Mawatha, Colombo",4.1
ChIJcTuA0Jeq4zoRSehuolOKQWw,103.0,"supermarket,grocery_or_supermarket,store,point_of_interest,food,establishment",,,left_only,Cargills Food City Express - Pugoda,6.9762412,80.1210424,"Hanwella Jct Rd, Pugoda",4.1
ChIJcVvY9Qn1_DoRNwPnwBMiMwU,1363.0,"supermarket,grocery_or_supermarket,store,point_of_interest,food,establishment",Anuradhapura,1363.0,both,Cargills Food City - Anuradhapura 2,8.3401949,80.4112621,"8CR6+3FG, Anuradhapura",4.3
ChIJcx49fgBR4joRk-643HrpJwQ,3.0,"grocery_or_supermarket,food,store,point_of_interest,establishment",,,left_only,Cargills Food City - Depanama,6.8549374,79.94543519999999,"VW3W+W6Q, 100 Boralla Rd, Pannipitiya",5.0
ChIJd8z_Nrkr4joR0Ti3DClxXEs,116.0,"supermarket,grocery_or_supermarket,food,store,point_of_interest,establishment",,,left_only,Cargills Food City Express - Ahungalla,6.3151843,80.034932,"828M+3XF, Wathuregama",4.4
ChIJdf4QgapZ4joRtaivH6tbWPM,,,Colombo,159.0,right_only,Cargills Food City - Maligawatta 2,6.9386902,79.8747583,"227 Sri Saddarma Mawatha, Colombo 01000, Sri Lanka",3.9
ChIJdwdS6XVo4zoRZSRcOKg4qKA,667.0,"supermarket,grocery_or_supermarket,store,point_of_interest,food,establishment",Kandy,667.0,both,Cargills Food City - Katugastota - 1,7.3142426,80.6316397,"8J7J+JMQ, 271 A Katugastota Rd, Kandy",4.0
ChIJe5cHj3NX4joRPi6K2BqprCg,295.0,"supermarket,grocery_or_supermarket,store,food,point_of_interest,establishment",,,left_only,Cargills Food City Express - Mulleriyawa,6.936796299999999,79.9380264,"Galwana Junction, Orugodawatte - Ambatale Rd",4.0
ChIJeT03feAF4zoR8m3LhzqxiXI,55.0,"supermarket,grocery_or_supermarket,food,store,point_of_interest,establishment",,,left_only,Cargills Food City Express - Kannattota,7.0825713,80.2719157,"10 Main St, Kannaththota",4.4
ChIJeU4CZoxX4joROjPrvB4cTjo,491.0,"grocery_or_supermarket,store,point_of_interest,food,establishment",,,left_only,Cargills Food City - Himbutana,6.9228443,79.9402329,"WWFR+43Q, Colombo",4.0
ChIJeeCOm2Iu4joRPy5jtGz4uw4,366.0,"grocery_or_supermarket,food,store,point_of_interest,establishment",,,left_only,Cargills Food City - Aluthgama 2,6.437482,79.9957355,"CXPW+X7X, Aluthgama",4.4
ChIJeehcHADz5DoRFU98A1CHc9c,36.0,"supermarket,grocery_or_supermarket,store,point_of_interest,food,establishment",,,left_only,Cargills Food City - Bibile,7.164442799999999,81.2258985,"567G+Q9C, Peradeniya-Badulla-Chenkaladi Hwy, Bibile",4.6
ChIJfQ5tl7dZ4joRYAAHLXn9WaM,123.0,"grocery_or_supermarket,store,point_of_interest,food,establishment",Colombo,123.0,both,Cargills Food City - Ananda Coomarasamy Mawatha,6.911835099999999,79.854643,"62 Ananda Coomaraswamy Mawatha, Colombo",4.3
ChIJfWYxu8kV4zoRUeCIl2KsREs,71.0,"supermarket,grocery_or_supermarket,food,store,point_of_interest,establishment",,,left_only,Cargills Food City Express - Pinnawala,7.299304500000001,80.3861958,"No -563, Kegalle - Rambukkana Rd, Rambukkana",4.2
ChIJf__HKwB_4ToRbFtjsdHqB2c,1.0,"supermarket,grocery_or_supermarket,food,store,point_of_interest,establishment",,,left_only,Cargills Food City,6.2886652,80.16327489999999,"75Q7+F87, Elpitiya-Pituwala-Kahaduwa Road, Elpitiya",5.0
ChIJfaQEpWBZ4joRRC6CVjuy4aI,385.0,"supermarket,grocery_or_supermarket,food,store,point_of_interest,establishment",Colombo,385.0,both,Cargills Food City - Kollupitiya,6.902797899999999,79.852628,"No. 407 Galle Rd, Colombo",3.9
ChIJfaQEpWBZ4joRRC6CVjuy4aI,385.0,"supermarket,grocery_or_supermarket,food,store,point_of_interest,establishment",Galle,385.0,both,Cargills Food City - Kollupitiya,6.902797899999999,79.852628,"No. 407 Galle Rd, Colombo",3.9
ChIJfcBqhNQ34zoRzc_Ghk2Qty4,458.0,"supermarket,grocery_or_supermarket,store,food,point_of_interest,establishment",,,left_only,Cargills Food City Express - Ibbagamuwa,7.547703599999999,80.44975869999999,"No. 5, Dambulla Rd, Ibbagamuwa",4.0
ChIJffGQ2cQD_zoRPdoRYx-FWNY,,"point_of_interest,establishment",,,left_only,Cargills Parking (Only for food city customers),9.799633,80.1965499,"163 Jaffna Rd, Karaveddi",
ChIJffoBZeBb4joRlA60VZw2vJI,48.0,"grocery_or_supermarket,food,store,point_of_interest,establishment",,,left_only,Cargills Food City - Marine City,6.8509933,79.8625996,"46 Station Road, Dehiwala-Mount Lavinia",3.7
ChIJg2oDHwBb4joRNPlGiHpH09o,4.0,"grocery_or_supermarket,food,store,point_of_interest,establishment",Colombo,4.0,both,Cargills Food City Express - Isipathana Mawatha,6.896713399999999,79.8634584,"Henry Play Ground, No. 149 A/1, 5 Colombo 5, Colombo",3.8
ChIJg3PunkZZ4joRbEn2jsz_HYI,,,Colombo,181.0,right_only,Cargills Food City - Rajagiriya 03,6.9017116,79.8937704,"502 Nawala Rd, Sri Jayawardenepura Kotte 11222, Sri Lanka",4.1
ChIJg4o-m0la4joR8i_l-DoabM4,,,Colombo,792.0,right_only,Cargills Food City - Nugegoda 1,6.875580599999999,79.88087139999999,"240 A4, Nugegoda 00500, Sri Lanka",4.0
ChIJgXbqge194zoRPIjjAQnAXfw,126.0,"supermarket,grocery_or_supermarket,food,store,point_of_interest,establishment",,,left_only,Cargills Food City express Rikillagaskada,7.1451977,80.7852707,"54 Dimbulkumbura Road, Rikillagaskada",4.3
ChIJg_XqIqpW_joR-zeHHgs0_qM,1812.0,"supermarket,grocery_or_supermarket,food,store,point_of_interest,establishment",Jaffna,1812.0,both,Cargills Food City - Jaffna,9.6651744,80.0138527,"No 420 Hospital Rd, Jaffna",4.3
ChIJgeqvz5Ba4joRVcilfsWSX7A,294.0,"supermarket,grocery_or_supermarket,food,store,point_of_interest,establishment",,,left_only,Cargills Food City Express - Pirivena Junction,6.841719500000001,79.9065257,"No: 567,Pirivena Junction, Maharagama Rd, Boralesgamuwa",4.2
ChIJhRor4-ai5ToRqwybsVJcQS8,440.0,"supermarket,grocery_or_supermarket,store,food,point_of_interest,establishment",,,left_only,Cargills Food City - Pottuvil,6.875396299999999,81.8299428,"Kaleej, Front Building, Main Street, Pottuvil",4.1
ChIJhSbuyuAb4zoRzv3ivq-2-qU,395.0,"supermarket,grocery_or_supermarket,store,point_of_interest,food,establishment",,,left_only,Cargills Food City Express - Ambepussa,7.239090399999999,80.2080106,"365 Colombo Road, Ambepussa",4.0
ChIJhVc3p7tz4ToRblNf47szSss,746.0,"supermarket,grocery_or_supermarket,store,point_of_interest,food,establishment",Galle,746.0,both,Cargills Food City - Galle 2,6.0351835,80.21712269999999,"10/8 Wakwella Rd, Galle",4.2
ChIJhWXm0XKb4zoRPdCr4z5aTXQ,404.0,"supermarket,grocery_or_supermarket,food,store,point_of_interest,establishment",,,left_only,Cargills Food City and pharmacy - Hatton,6.892834499999999,80.5973033,"171 Dimbulla Rd, Hatton",3.9
ChIJhyQgLABP4ToRnw7u8Sh_KPA,43.0,"grocery_or_supermarket,food,store,point_of_interest,establishment",,,left_only,Cargills Food City - Hakmana,6.082768199999999,80.6470113,"3JMW+4Q9, Hakmana",4.3
ChIJi82IBABx4zoRT4Bb1dDb87Y,5.0,"grocery_or_supermarket,store,point_of_interest,food,establishment",,,left_only,Cargills Food City - Gampola 2,7.164911300000001,80.5747497,"36 Illawatura Rd, Gampola",4.8
ChIJiRbBqdJb4joRORUunwDrZWc,437.0,"supermarket,grocery_or_supermarket,store,point_of_interest,food,establishment",Colombo,437.0,both,Cargills Food City - Jaya Road,6.886556199999999,79.8549986,"No. 34, Jaya Road, Colombo - 04 Colombo - 04, Colombo",4.0
ChIJiT8s3Q1Z4joRnvIio39F2jc,496.0,"supermarket,grocery_or_supermarket,food,store,point_of_interest,establishment",Colombo,496.0,both,Cargills Food City Express - Deans Road,6.924589099999999,79.8649143,"No: 153 Abeygoonaratne Mawatha, Colombo",3.9
ChIJiUUG1xAP4zoR05cbz44pUUQ,56.0,"grocery_or_supermarket,store,point_of_interest,food,establishment",,,left_only,Cargills Food City Express Bulathkohupitiya,7.1031936,80.3351818,"NO 67A Avissawella Rd, Bulathkohupitiya",4.4
ChIJiw-FYgLE4joR9IdZRXGrJ54,296.0,"supermarket,grocery_or_supermarket,food,store,point_of_interest,establishment",,,left_only,Cargills Food City - Marawila,7.4157972,79.830433,"65 Chilaw - Colombo Main Rd, Marawila",4.0
ChIJj-51LADl4joRL8tJXTNiitM,3.0,"supermarket,grocery_or_supermarket,store,point_of_interest,food,establishment",,,left_only,Cargills Foodcity Express - Dunagaha,7.2312398,79.973236,"6XJF+F7W, No 79 - C Negombo - Mirigama Rd, Dunagaha",5.0
ChIJj1U0Qdxp4zoRNw_mBN_9y_A,250.0,"grocery_or_supermarket,store,food,point_of_interest,establishment",,,left_only,Cargills Food City Express - Aladeniya,7.3316449,80.5699376,"8HJ9+MX3, Katugastota-Kurunegala-Puttalam Hwy, Aladeniya",4.0
ChIJj6uByz384joRUNYYAKRr1dw,,,Gampaha,537.0,right_only,Cargills Food City - Yakkala 1,7.0866386,80.0336808,"Sanasa Building, No. 99, Yakkala Park, Kandy - Colombo Rd, Yakkala, Sri Lanka",4.0
ChIJjTg29ChF4zoRfzSqhtcysqA,267.0,"supermarket,grocery_or_supermarket,store,food,point_of_interest,establishment",Matale,267.0,both,Cargills Food City Express,7.470932800000001,80.62324199999999,"No. 1, 15 Rose St, Matale",4.0
ChIJjYx4ugvv4joRqNzPCMr3oRA,451.0,"supermarket,grocery_or_supermarket,store,point_of_interest,food,establishment",,,left_only,Cargills Food City - Kurana,7.178387599999999,79.8620433,"1, 3701 M 1 L, 677 Negombo Rd, Katunayake",4.3
ChIJjbc7dh3D4joRStsOkrYmAiE,268.0,"supermarket,grocery_or_supermarket,food,store,point_of_interest,establishment",,,left_only,Cargills Food City - Wennappuwa 2,7.3338437,79.84440529999999,"8RMV+GQJ, Wennappuwa",4.2
ChIJjz-GaKpa4joRidt2kqu-1v4,821.0,"supermarket,grocery_or_supermarket,food,store,point_of_interest,establishment",,,left_only,Cargills Food City,6.818419899999999,79.9180511,"No. 201/1A, Bokundara Bokundara",4.0
ChIJjzzXWEBJ4joRZ83_RjJbxoI,521.0,"supermarket,grocery_or_supermarket,food,store,point_of_interest,establishment",,,left_only,Cargills Food City - Bandaragama 01,6.7133726,79.9880845,"A8, Bandaragama",4.0
ChIJk-g_iG9T_joRTn5z8bxdGEA,242.0,"supermarket,grocery_or_supermarket,food,store,point_of_interest,establishment",,,left_only,Cargills Food City - Manipay,9.7231876,79.99749729999999,"120 Jaffna-Manipay-Karainagar Rd, Manipay",4.1
ChIJk1rS_Bfk4joR1A8EI_-Llmk,196.0,"supermarket,grocery_or_supermarket,store,point_of_interest,food,establishment",,,left_only,Cargills Food City Express - Marandagahamula,7.2296321,79.9866422,"89 Negombo - Mirigama Rd, Marandagahamula",4.0
ChIJkSR1qbFF4joRI5XQZ_zSRWA,536.0,"supermarket,grocery_or_supermarket,food,store,point_of_interest,establishment",,,left_only,Cargills Food City - Borupana,6.813337199999999,79.8889825,"No. 69/1 Borupana Rd, Colombo",4.1
ChIJkTzKy4f94joRFNqWTW0czv4,,,Gampaha,151.0,right_only,Cargills Food City - Yakkala 2,7.0884726,80.02907549999999,"No : 12, Madugaswalawwa, Ja Ela-Ekala-Gampaha-Yakkala Hwy, Yakkala, Sri Lanka",4.2
ChIJkUvgp2VT4joR6GO-4uJEkPo,500.0,"supermarket,grocery_or_supermarket,store,point_of_interest,food,establishment",,,left_only,Cargills Foodcity Meepe,6.8585927,80.09093179999999,"S, Padukka",4.2
ChIJk_SnIYYu4joRKJ8MkeGP2H4,810.0,"supermarket,grocery_or_supermarket,food,store,point_of_interest,establishment",,,left_only,Cargills Food City - Aluthgama 1,6.4333354,79.9977837,"303 Main Street, Aluthgama",4.0
ChIJk_fqOBzZ4joR5pOkfFv-Cnk,350.0,"grocery_or_supermarket,store,food,point_of_interest,establishment",,,left_only,Cargills Food City - Kuliyapitiya 2,7.4687036,80.0341414,"F29M+FMJ, Kuliyapitiya",4.4
ChIJkcNh0OL34joR_vCmhQ-N90k,221.0,"supermarket,grocery_or_supermarket,store,food,point_of_interest,establishment",,,left_only,Cargills Food City Express - Hunupitiya,6.9845561,79.9019146,"No 58, Diulapitiya Road, Wattala",3.9
ChIJkdMLe4oV5ToR729Ntxn13z8,237.0,"supermarket,grocery_or_supermarket,store,point_of_interest,food,establishment",,,left_only,Cargills Food City Samanthurai,7.3633211,81.7977421,"9Q8W+5H9, Karativu-Ampara Hwy, Sammanthurai",4.1
ChIJkxz_OUVQ4joRQe5nijgkoRc,407.0,"supermarket,grocery_or_supermarket,food,store,point_of_interest,establishment",,,left_only,Cargills Food City Express Pannipitiya,6.8467217,79.95118529999999,"Pannipitiya Old Rd, Pannipitiya",4.0
ChIJlSOhr15l5DoR9_E8-xuny9k,408.0,"supermarket,grocery_or_supermarket,food,store,point_of_interest,establishment",,,left_only,Cargills Food City - Bandarawela 3,6.8414476,81.004211,"R2R3+MQ2, B51, Bandarawela",4.2
ChIJl_oVjzxt4ToRa0wHelLMxTg,421.0,"supermarket,grocery_or_supermarket,store,point_of_interest,food,establishment",,,left_only,Cargills Food City (Express) - Habaraduwa,5.993628999999999,80.3069106,"Dassana Building, Galle Road, Habaraduwa",4.0
ChIJla661Whv4zoRvEu4u86E7GQ,229.0,"supermarket,grocery_or_supermarket,store,point_of_interest,food,establishment",,,left_only,Cargills Food city Express - Galaha Road,7.243984299999999,80.598511,"Peradeniya-Deltota-Rikiligaskada Rd, Hindagala",4.1
ChIJlyO9gGBE-zoRNCUYddMtyHQ,534.0,"supermarket,grocery_or_supermarket,store,point_of_interest,food,establishment",Polonnaruwa,534.0,both,Cargills Food City - Kaduruwela,7.928211999999998,81.0342228,"No. 896, Maradankadawala-Habarana-Thirukkondaiadimadu Hwy",4.1
ChIJm2U37phV_joRTlvjYhg2-Tc,16.0,"grocery_or_supermarket,food,store,point_of_interest,establishment",,,left_only,Cargills Foodcity-Kopay,9.7046332,80.06955839999999,"P339+RMM, Jaffna",4.3
ChIJmQimBtFb4joRAr4i8SWMYkM,267.0,"supermarket,shopping_mall,grocery_or_supermarket,store,point_of_interest,food,establishment",Colombo,267.0,both,Cargills Food City - Thimbirigasyaya,6.8909943,79.8665037,"90 Thimbirigasyaya Rd, Colombo",3.6
ChIJm_PKBWSp4zoReq5Xqfxt1T4,165.0,"supermarket,grocery_or_supermarket,store,point_of_interest,food,establishment",,,left_only,Cargills Food City - Avissawella 2,6.9470148,80.1986618,"No: 240A, Colombo Road, Kiriwandala, Avissawella",4.3
ChIJmaUcqHxb4joR-EYJoF0zsus,125.0,"supermarket,grocery_or_supermarket,store,point_of_interest,food,establishment",Galle,125.0,both,Cargills Food City - Mt. Lavinia 02,6.844351,79.8660256,"158, Galle Road, Dehiwala-Mount Lavinia, Colombo",4.2
ChIJmbRNlw5Z4joRWrbxH7KAteY,962.0,"supermarket,grocery_or_supermarket,store,point_of_interest,food,establishment",Colombo,962.0,both,Cargills Food City - Maradana,6.9257675,79.86711849999999,"585 Maradana Rd, Colombo",3.9
ChIJn85NYYFZ4joRZZXAHl1TWbU,,,Colombo,81.0,right_only,Cargills Food City - Trillium Residencies,6.9038765,79.8781826,"153 Elvitigala Mawatha, Colombo 00800, Sri Lanka",4.1
ChIJn8l4Z-dr_ToRibdGWt5AZ-c,135.0,"supermarket,grocery_or_supermarket,food,store,point_of_interest,establishment",,,left_only,Cargills Food City - Express Norochcholai,8.048975,79.7373125,"2PXP+HWP, Kalpitiya Rd, Norochcholai",4.2
ChIJnYv7jfxQ4joRL5PU4-juYFk,239.0,"supermarket,grocery_or_supermarket,food,store,point_of_interest,establishment",,,left_only,Cargills Food City Pannipitiya,6.866789199999999,79.9595131,"VX85+MRW, Thalawathugoda Road Vidyala Junction, Hokandara",3.8
ChIJo0Fg4yRz4ToRVRAAtcDqfL8,109.0,"supermarket,grocery_or_supermarket,store,point_of_interest,food,establishment",Galle,109.0,both,Cargills Food City (Express) - Dangedara,6.0517316,80.2199407,"389 B128, Galle",4.5
ChIJo0T6VMPu4joRfDKA-vCiCu4,299.0,"supermarket,grocery_or_supermarket,food,store,point_of_interest,establishment",,,left_only,Cargills Food City Express - Y Junction,7.2220095,79.8631944,"297/1, Meerigama Road Mahahunupitiya",4.1
ChIJo1C3xoJF4zoRlLfBzGXzQ_I,217.0,"grocery_or_supermarket,store,food,point_of_interest,establishment",Matale,217.0,both,Cargills Food City - Matale 03,7.4583637,80.6282093,"FJ5H+793, Matale",4.4
ChIJo9EKtv934ToR7yhd3Rv2ePE,560.0,"supermarket,grocery_or_supermarket,store,point_of_interest,food,establishment",,,left_only,Cargills Food City (Express) - Hikkaduwa 1,6.143180399999999,80.0996948,"162 Galle Rd, Hikkaduwa",4.2
ChIJoSie9RA14zoRL9wRDQ_TpBk,62.0,"grocery_or_supermarket,store,food,point_of_interest,establishment",,,left_only,Cargills Food City Express - Hiripitiya,7.65491,80.3708267,"Shantec, B300, 66 Kurunegala Rd",4.2
ChIJoW9HvZNN4ToRf-VTnN4OMyE,48.0,"grocery_or_supermarket,food,store,point_of_interest,establishment",,,left_only,Cargills Food City (Express) - Weeraketiya,6.1484412,80.7624838,"4QX6+9XQ Pawana, Beliatta - Walasmulla Rd, Weeraketiya",4.2
ChIJoXOZJCNZ4joRl1F2ojgfhZI,,,Colombo,271.0,right_only,Cargills Food City - Obesekarapura,6.9192543,79.8919035,"188 Obeysekarapura Rd, Sri Jayawardenepura Kotte 10100, Sri Lanka",4.2
ChIJoYlczy0C_zoR7HEhwBGXAuA,454.0,"supermarket,grocery_or_supermarket,food,store,point_of_interest,establishment",,,left_only,Cargills Food City (Express) - Nelliyady,9.7995576,80.1965395,"No.163, Jaffna Rd, Nelliady",4.1
ChIJoeqKxRRZ4joRXz2BLfokofw,1705.0,"supermarket,grocery_or_supermarket,store,point_of_interest,food,establishment",Colombo,1705.0,both,Cargills Food City - Staple Street,6.920249900000001,79.85575,"WVC4+488, 21 Staple St, Colombo",4.3
ChIJoft3j2wq4joRh4h3U36bQ6Q,96.0,"supermarket,grocery_or_supermarket,food,store,point_of_interest,establishment",,,left_only,Cargills Food City Kosgoda Srimal Building,6.326866099999999,80.0334476,Kosgoda,4.4
ChIJox1pjT_34joRp4VL2e_XKCY,2194.0,"supermarket,pharmacy,grocery_or_supermarket,store,health,point_of_interest,food,establishment",,,left_only,Cargills Food City- Kandana,7.0494669,79.8958911,"Negombo Rd, Kandana",4.2
ChIJp03-x6n1_DoRvhN9H0ls5zI,1232.0,"supermarket,grocery_or_supermarket,store,point_of_interest,food,establishment",Anuradhapura,1232.0,both,Cargills Food City - Anuradhapura 1,8.3316985,80.4091098,"248, Anuradhapura, Maithripala Senanayake Mawatha, Anuradhapura",4.1
ChIJp0vEbHln-zoRgQyQHvEwbt8,18.0,"grocery_or_supermarket,food,store,point_of_interest,establishment",,,left_only,Cargills Food City Express - Hingurakgoda,8.0426714,80.95502599999999,"2XV4+326, Airport Rd, Hingurakgoda",4.6
ChIJp5A49Xc54ToRZz1cH5zNmiY,20.0,"grocery_or_supermarket,food,store,point_of_interest,establishment",Matara,20.0,both,Cargills Food City (Express) - Kumbalgama,5.9476958,80.5831283,"WHXM+37C, Yatiyana road, Kubalgama, Matara",4.9
ChIJp8iEdNQt4joRIgRG-qUPEdo,542.0,"supermarket,grocery_or_supermarket,food,store,point_of_interest,establishment",,,left_only,Cargills Food City - Dharga Town,6.4412895,80.0138922,"321/3 Main Street, Aluthgama - Mathugama Rd, Dharga Town",3.9
ChIJpU8GAwBp4zoRqt8rTJo_iG8,30.0,"grocery_or_supermarket,food,store,point_of_interest,establishment",,,left_only,Cargills Food City Kiribathkumbura,7.266661899999999,80.5821181,"7H8J+JR2, Kandy - Colombo Rd, Iriyagama",4.3
ChIJpdQwy-E74zoRR0AcH5gbGD0,101.0,"supermarket,grocery_or_supermarket,store,food,point_of_interest,establishment",Kurunegala,101.0,both,Cargills Food City Yanthampalawa - Express,7.493573700000001,80.3478478,"225 B82, Kurunegala",4.4
ChIJpzRjr86n_DoRiEO3IcdSLlw,49.0,"supermarket,grocery_or_supermarket,food,store,point_of_interest,establishment",,,left_only,Cargills Food City Express,7.873053999999999,80.77179699999999,"No 46, Main Street Moratumulla",3.9
ChIJq-CHyJhH4ToRKfeNDn5q-JA,145.0,"supermarket,grocery_or_supermarket,food,store,point_of_interest,establishment",,,left_only,Cargills Food City Thihagoda,6.0116802,80.5664828,"Wasantha, B275, Thihagoda",4.4
ChIJq6qqqqpe4ToRtAule7b_w8Q,,"supermarket,grocery_or_supermarket,store,food,point_of_interest,establishment",,,left_only,Cargills Food City Express - Southern Highway - A,6.237375,80.54384499999999,"Cargills Food City Express, A Canowin Arcade, Welipenna Rest area. (Southern Hig, Welipenna",
ChIJq8S0fJxd4zoR7Kx72Gofs2A,191.0,"supermarket,grocery_or_supermarket,store,food,point_of_interest,establishment",,,left_only,Cargills Food City Express - Wattegama,7.3520072,80.6825173,"No. 31, Matale Rd, Wattegama",4.1
ChIJq9ODBgBZ4joRVlx0tVJff6o,,,Colombo,15.0,right_only,Cargills Food City - Kolonnawa 02,6.9324387,79.8941231,"135 B96, Sri Jayawardenepura Kotte 10600, Sri Lanka",3.5
ChIJqZWZIdVZ4joRilkIsob0M4M,92.0,"supermarket,grocery_or_supermarket,food,store,point_of_interest,establishment",Colombo,92.0,both,Cargills Food City Express - Maligawatta,6.934709199999999,79.86743539999999,"83 Maligawatta Pl, Colombo",3.7
ChIJq_F1diEu4joRKj2IcAjYeds,147.0,"supermarket,grocery_or_supermarket,food,store,point_of_interest,establishment",,,left_only,Cargills Food City - Beruwala,6.4746932,79.98348949999999,"Asian Highway 43, Beruwala",4.0
ChIJqePOGkE24ToR4LId2nKmJyM,681.0,"supermarket,grocery_or_supermarket,food,store,point_of_interest,establishment",,,left_only,Cargills Food City - Dickwella,5.964709399999999,80.6957712,"52 New Tangalle Rd, Dikwella",4.2
ChIJr6ssre4Z5ToRyt3hipCuR94,401.0,"supermarket,grocery_or_supermarket,store,food,point_of_interest,establishment",Ampara,401.0,both,Cargills Food City - Ampara,7.291442,81.67530169999999,"7MVG+934, Reegal Cinama Nidahas Mawatha, Cinema Rd, Ampara",4.2
ChIJrQaSlhj74zoR4AMvVNHPBT0,79.0,"grocery_or_supermarket,store,point_of_interest,food,establishment",,,left_only,Cargills Food City (Express) - Pallebedda,6.481222499999999,80.7065263,"FPJ4+FJJ, Pallebedda",4.6
ChIJrSbBENho4zoRSMCtBpErEXA,699.0,"grocery_or_supermarket,food,store,point_of_interest,establishment",,,left_only,Cargills Food City Express - Eriyagama,7.265313499999999,80.58924329999999,"7H8Q+4MH, Colombo Road",4.1
ChIJrWpJDK9b4joRR68ce2wYV28,865.0,"supermarket,grocery_or_supermarket,store,point_of_interest,food,establishment",Colombo,865.0,both,Cargills Food City - Wellawatta,6.871126899999999,79.8618809,"256 3-B/1, Moor Road Galle Road",3.9
ChIJrWpJDK9b4joRR68ce2wYV28,865.0,"supermarket,grocery_or_supermarket,store,point_of_interest,food,establishment",Galle,865.0,both,Cargills Food City - Wellawatta,6.871126899999999,79.8618809,"256 3-B/1, Moor Road Galle Road",3.9
ChIJs1my62A94zoRqQef26QHeRg,343.0,"supermarket,grocery_or_supermarket,food,store,point_of_interest,establishment",,,left_only,Cargills Food City Express - Polgahawela,7.336713800000001,80.30060139999999,"Colombo Road, Ambepussa - Kurunegala - Trincomalee Hwy, Polgahawela",4.1
ChIJsQ6T9PJZ4joR60kAGoRq02E,1726.0,"supermarket,grocery_or_supermarket,food,store,point_of_interest,establishment",Colombo,1726.0,both,Cargills Food City - Rajagiriya 02,6.908323299999999,79.8993481,"395, Sri Jayawardanapura Mw, Welikada Terrace, Rajagiriya",4.3
ChIJsUGQzjpa4joRH36Us2n9nPs,1267.0,"supermarket,grocery_or_supermarket,food,store,point_of_interest,establishment",Colombo,1267.0,both,Cargills Food City - Nawala,6.888018799999999,79.8875461,"264 B470, Sri Jayawardenepura Kotte",4.0
ChIJsaA06IIP4zoRMYN-xwZkig8,195.0,"grocery_or_supermarket,food,store,point_of_interest,establishment",,,left_only,Cargills Food City Express - Kotiyakumbura,7.121460099999999,80.2864768,Kotiyakumbura,4.0
ChIJsbaWSnce4zoRhaklyWzovBs,783.0,"supermarket,grocery_or_supermarket,food,store,point_of_interest,establishment",,,left_only,Cargills Food City,7.249465000000001,80.1306742,"93 Pasyala - Giriulla Rd, Mirigama",4.0
ChIJsfIZ2hJF4joRlMvbVBw3img,715.0,"supermarket,grocery_or_supermarket,food,store,point_of_interest,establishment",,,left_only,Cargills Food City - Rawathawatta,6.7911107,79.8865371,"491, Galle Road, Andiriss Mawatha Moratuwa, Colombo, Moratuwa",4.4
ChIJt5w2SYtW4joRYv6bDAiaDZI,240.0,"supermarket,grocery_or_supermarket,store,point_of_interest,food,establishment",,,left_only,Cargills Food City - Bandarawatte,6.9393214,79.98696679999999,"160/9A, New Kandy Road, Bandarawatte, Biyagama",4.0
ChIJtU5HDp5L4ToRa5BG4DxQoNI,59.0,"grocery_or_supermarket,store,food,point_of_interest,establishment",,,left_only,Cargills EXpress Tangalle,6.0322449,80.78863369999999,"2QJQ+VFR, Tangalle",4.5
ChIJtUOYWNM44ToRdv2OlqwWT-o,1252.0,"supermarket,grocery_or_supermarket,store,point_of_interest,food,establishment",Matara,1252.0,both,Cargills Food City - Matara 1,5.9493725,80.5447226,"60 Anagarika Dharmapala Mawatha, Matara",4.2
ChIJtWSkzQb94joRChqYg08VS1Y,1113.0,"supermarket,grocery_or_supermarket,store,point_of_interest,food,establishment",,,left_only,Cargills Food City - Mawanella,7.252876499999999,80.4490639,"22/C Kandy - Colombo Rd, Mawanella",4.2
ChIJt_ZeXbpz4ToRvcFauZHxu38,105.0,"supermarket,grocery_or_supermarket,store,point_of_interest,food,establishment",Galle,105.0,both,Cargills Food City (Express),6.0357646,80.219495,"No. 487, new Galle Road Moratuwella",4.0
ChIJtam7lNtK4ToR6qhtcYv_i8M,1033.0,"supermarket,grocery_or_supermarket,food,store,point_of_interest,establishment",,,left_only,Cargills Food City - Tangalle,6.025772400000001,80.7946269,"New Tangalle Rd, Tangalle",4.1
ChIJtboGLtQ_4ToRT5uwDNgXD_Y,1041.0,"grocery_or_supermarket,store,point_of_interest,food,establishment",,,left_only,Cargills Food City - Mirissa,5.947409299999999,80.458157,Mirissa,4.2
ChIJtyIJ9x054ToRC8FmKXD6hZs,64.0,"supermarket,grocery_or_supermarket,food,store,point_of_interest,establishment",,,left_only,Cargills Food City (Express) - Kekanadura,5.964122400000001,80.60271639999999,"Rathmale Road, Kekanadura",4.4
ChIJu-iwMLdZ4joReclU4AXh37k,861.0,"supermarket,grocery_or_supermarket,food,store,point_of_interest,establishment",Colombo,861.0,both,Cargills Food City - Kolonnawa,6.9325777,79.8919617,"Urban Council Premises, Kolonnawa, Wellampitiya Kolonnawa Road, 17c Keppetipola Mawatha, Sri Jayawardenepura Kotte",4.1
ChIJuSxmKS1v5DoRZGr5rdv4D-E,869.0,"supermarket,grocery_or_supermarket,food,store,point_of_interest,establishment",,,left_only,Cargills Food City - Bandarawela 2,6.8298077,80.9941178,"393 Bandarawela By Pass Rd, Bandarawela",4.2
ChIJuYl9TtGf4zoREanAH-JqqRQ,199.0,"supermarket,grocery_or_supermarket,store,point_of_interest,food,establishment",,,left_only,Cargills Food City (Express) - Ginigathhena,6.990589099999999,80.4932486,"නුවර පාර, Ginigathhena",3.9
ChIJuf9txuVZ4joRRyt8vANnuMw,498.0,"supermarket,grocery_or_supermarket,food,store,point_of_interest,establishment",Colombo,498.0,both,Cargills Food City - Kollupitiya 2,6.9097406,79.8504303,"271 A2, Colombo",4.2
ChIJuf9txuVZ4joRRyt8vANnuMw,498.0,"supermarket,grocery_or_supermarket,food,store,point_of_interest,establishment",Galle,498.0,both,Cargills Food City - Kollupitiya 2,6.9097406,79.8504303,"271 A2, Colombo",4.2
ChIJv1l9WGj44joRfbyVtTr1h5s,542.0,"supermarket,grocery_or_supermarket,food,store,point_of_interest,establishment",,,left_only,Cargills Food City - Kadawatha 3,7.0035737,79.95084709999999,"2X32+C8Q, Kadawatha",4.1
ChIJvTsuYgB54ToRzoiB33zGLI8,47.0,"supermarket,grocery_or_supermarket,food,store,point_of_interest,establishment",,,left_only,Cargills Food City Express - Batapola,6.2258768,80.1175308,"64G9+922, Batapola",4.4
ChIJvbG-mJLu4joRgibwHu2nsQ4,328.0,"supermarket,grocery_or_supermarket,store,point_of_interest,food,establishment",,,left_only,Cargills Food City - Negombo 2,7.206300799999999,79.8506682,"266 Negombo - Colombo Main Rd, Negombo",4.1
ChIJvbyIJwFU_joRtYJ-n4YN4gs,333.0,"supermarket,grocery_or_supermarket,food,store,point_of_interest,establishment",Jaffna,333.0,both,Cargills Food City - Jaffna,9.6712446,80.0116105,"No. 54 Kannathiddy Rd, Jaffna",4.2
ChIJvx0qxwVv4zoRowIhceFqyrg,307.0,"supermarket,grocery_or_supermarket,food,store,point_of_interest,establishment",,,left_only,Cargills Food City Express - Gelioya,7.217772099999999,80.59756279999999,"6H9X+649, Peradeniya Rd, Gelioya",3.9
ChIJvxpw2LlU_joRP0NBOp_i26E,438.0,"supermarket,grocery_or_supermarket,food,store,point_of_interest,establishment",,,left_only,Cargills Food City - Chunnakam,9.7435113,80.0273057,"No. 91, K. K. S. Road, 125 Jaffna-Kankesanturai Rd, Chunnakam",4.2
ChIJvyw7xk8J4zoRLVlP7FNDI88,141.0,"supermarket,grocery_or_supermarket,food,store,point_of_interest,establishment",,,left_only,Cargills Food City (Express) Yatiyantota,7.0307743,80.294685,"27JV+8V2, Yatiyanthota",4.2
ChIJwX1ZfroB4zoRZ3knW8hf434,184.0,"supermarket,grocery_or_supermarket,store,point_of_interest,food,establishment",,,left_only,Cargills Food City Express,7.042025199999999,80.12884509999999,"No.111, Radawana Road, Kirindiwela",4.2
ChIJwcpE2cfv4joRe2R6JDEeZqo,45.0,"grocery_or_supermarket,food,store,point_of_interest,establishment",,,left_only,Cargills Food City Express - Bandaranaike International Airport,7.173369,79.8861574,"5VFP+8FV, Canada Friendship Rd, Katunayake",4.2
ChIJwcvC5Wtz4ToR6lDFrB4RMe8,484.0,"grocery_or_supermarket,store,point_of_interest,food,establishment",,,left_only,Cargills Food City (Express) - Unawatuna,6.0198256,80.2477127,"269X+W3P, Matara Rd, Unawatuna",4.3
ChIJwfnhVPa65joRE6USSM0R3VQ,1.0,"transit_station,point_of_interest,establishment",,,left_only,Cargills Food City Ambalantota,6.1221887,81.0173848,Ambalantota,5.0
ChIJwwaETAdL4zoR85oZqEb2VCU,249.0,"supermarket,grocery_or_supermarket,store,food,point_of_interest,establishment",,,left_only,Cargills Food City Express - Melsiripura,7.6378951,80.5051505,"JGP4+W3P, Dambulla Rd, Melsiripura",4.0
ChIJwxt2KWn44joR0PQ5zyHqmNo,475.0,"supermarket,grocery_or_supermarket,store,food,point_of_interest,establishment",,,left_only,Cargills Food City - Kadawatha2,7.0003604,79.94822599999999,"317 Kandy Rd, Kadawatha",4.0
ChIJx3SraRZi5DoRXETQDRf8yGE,926.0,"supermarket,grocery_or_supermarket,store,point_of_interest,food,establishment",Badulla,926.0,both,Cargills Food City - Badulla 1,6.988121899999999,81.0603083,"18, Dharmaduta Road, 18 Dharmadutha Road, Badulla",4.2
ChIJx7Qt_tU44ToRsf3VuOnLdvI,114.0,"supermarket,grocery_or_supermarket,store,point_of_interest,food,establishment",Matara,114.0,both,Cargills Food City (Express) - Matara,5.944539799999999,80.5494458,"1, A2, Matara",3.8
ChIJxRNyz3FQ5DoRP9P3crqlZp0,412.0,"supermarket,grocery_or_supermarket,food,store,point_of_interest,establishment",Monaragala,412.0,both,Cargills Food City - Monaragala,6.8712998,81.35009079999999,Monaragala,4.2
ChIJxc-tpWBZ4joRyqeRa6eipAY,1606.0,"supermarket,grocery_or_supermarket,store,point_of_interest,food,establishment",Colombo,1606.0,both,Cargills Food City - Duplication Road,6.9024028,79.8545389,"450 E R. A. De Mel Mawatha, Colombo",4.1
ChIJy0iXybfu4joR6gGRVrMMpQ8,220.0,"supermarket,grocery_or_supermarket,store,point_of_interest,food,establishment",,,left_only,Cargills Food City Express - Dalupotha,7.229472199999999,79.8508879,"6VH2+Q9J, Negombo",4.0
ChIJy8h8KUzv4joRkqB-PYY_nAU,51.0,"supermarket,grocery_or_supermarket,food,store,point_of_interest,establishment",,,left_only,Cargills Food City Express - Kimbulapitiya,7.206406500000001,79.8951635,"6V4W+H3M, Kimbulapitiya West, Kimbulapitiya",4.0
ChIJyYf75CA34joR1dsd6SDwNgA,,,Kalutara,419.0,right_only,Cargills Food City - Kaluthara South,6.5804161,79.961643,"272,Galle Road, Sri Lanka",3.8
ChIJyyebFOJZ4joRMwHuYwn1LeY,92.0,"supermarket,grocery_or_supermarket,store,point_of_interest,food,establishment",Colombo,92.0,both,Cargills Food City- YMCA,6.934607799999999,79.8457588,"39 Sir Razik Fareed Mawatha, Colombo",4.3
ChIJyzD63_1v5DoR7KDODVLODnA,727.0,"supermarket,grocery_or_supermarket,food,store,point_of_interest,establishment",,,left_only,Cargills Food City - Bandarawela 1,6.8310001,80.9885619,"7 Welimada Rd, Bandarawela",4.2
ChIJz5vjV9ZZ4joRMzql8Jn7Cp0,594.0,"supermarket,grocery_or_supermarket,store,point_of_interest,food,establishment",,,left_only,Cargills Food City - Kotikawatta,6.9346362,79.9164694,"250, B231, Kotikawatta",4.2
ChIJz9a3Eg0z5ToRU5HpP7BUYjo,39.0,"supermarket,grocery_or_supermarket,store,point_of_interest,food,establishment",,,left_only,Cargills Food City Express - Arayampathy,7.6739802,81.7328763,"71A Main St, East",4.4
ChIJzQYXDwBl5DoRyttvabHLvIM,2.0,"supermarket,grocery_or_supermarket,food,store,point_of_interest,establishment",,,left_only,Cargills Food City,6.8751244,81.0481935,"V2GX+27V, Ella",5.0
